City_ID,City,Lat,Lng,Max Temp,Humidity,Cloudiness,Wind Speed,Country,Date
0,port elizabeth,-33.918,25.5701,294.32,95,75,3.6,ZA,1705008385
1,port-aux-francais,-49.35,70.2167,280.28,92,100,11.1,TF,1705008385
2,belyy yar,53.6039,91.3903,265.09,93,75,3.0,RU,1705008385
3,geraldton,-28.7667,114.6,295.38,83,100,4.12,AU,1705008385
4,grytviken,-54.2811,-36.5092,276.63,86,61,4.9,GS,1705008386
5,amposta,40.7131,0.581,278.71,65,1,4.2,ES,1705008386
6,qarauyl,48.9451,79.255,259.53,69,26,6.61,KZ,1705008386
7,princeville,45.7668,-61.2985,277.34,88,100,1.54,CA,1705008386
8,college,64.8569,-147.8028,254.12,73,75,2.57,US,1705008387
9,padangsidempuan,1.3667,99.2667,295.16,97,100,1.06,ID,1705008387
10,waitangi,-43.9535,-176.5597,290.83,95,53,10.89,NZ,1705008388
11,hafar al-batin,28.4328,45.9708,289.47,51,0,4.12,SA,1705008388
12,olonkinbyen,70.9221,-8.7187,273.92,93,100,6.82,SJ,1705008388
13,vlahita,46.35,25.5167,266.2,60,100,2.2,RO,1705008389
14,invercargill,-46.4,168.35,290.38,74,90,4.47,NZ,1705008389
15,adamstown,-25.066,-130.1015,297.6,81,78,6.68,PN,1705008389
16,mejit,10.2753,170.8646,299.85,79,100,10.44,MH,1705008389
17,fale old settlement,-9.3852,-171.2468,302.15,76,99,6.0,TK,1705008390
18,vadso,70.0744,29.7487,265.24,79,75,6.17,NO,1705008390
19,patterson,37.4716,-121.1297,285.01,49,7,3.97,US,1705008390
20,enshi,30.3,109.4833,281.12,86,0,0.32,CN,1705008391
21,portland,45.5234,-122.6762,280.17,92,100,6.69,US,1705008392
22,ushuaia,-54.8,-68.3,283.96,50,0,10.8,AR,1705008396
23,fort bragg,35.139,-79.006,288.66,43,0,4.12,US,1705008404
24,ribeira grande,38.5167,-28.7,289.14,94,75,15.95,PT,1705008407
25,prado,-17.3411,-39.2208,299.06,79,1,3.9,BR,1705008407
26,papao,-17.75,-149.55,300.97,78,85,8.33,PF,1705008411
27,gebre guracha,9.8,38.4,286.61,29,99,0.84,ET,1705008411
28,palikir - national government center,6.9248,158.1611,301.62,84,100,6.17,FM,1705008412
29,cururupu,-1.8283,-44.8683,300.34,77,100,2.01,BR,1705008412
30,bethel,41.3712,-73.414,279.37,60,0,4.12,US,1705008290
31,edinburgh of the seven seas,-37.0676,-12.3116,291.06,84,3,3.57,SH,1705008413
32,fengxiang,47.5833,130.8333,245.52,97,24,1.77,CN,1705008413
33,albany,42.6001,-73.9662,277.41,68,98,1.91,US,1705008413
34,west island,-12.1568,96.8225,300.14,94,40,2.57,CC,1705008413
35,thompson,55.7435,-97.8558,247.24,76,75,1.03,CA,1705008160
36,cabinda,-5.55,12.2,300.23,83,97,0.0,AO,1705008379
37,yuzhno-kurilsk,44.0306,145.8556,272.8,78,100,11.13,RU,1705008414
38,sao joao da barra,-21.6403,-41.0511,301.2,80,49,9.46,BR,1705008415
39,carnarvon,-24.8667,113.6333,295.67,80,1,7.37,AU,1705008416
40,klaksvik,62.2266,-6.589,279.66,80,98,2.63,FO,1705008417
41,bilibino,68.0546,166.4372,240.66,94,100,0.98,RU,1705008417
42,georgetown,5.4112,100.3354,300.11,84,20,4.12,MY,1705008140
43,balkanabat,39.5108,54.3671,279.76,65,80,4.99,TM,1705008419
44,tiksi,71.6872,128.8694,236.95,97,75,3.66,RU,1705008420
45,port mathurin,-19.6833,63.4167,301.41,76,100,3.34,MU,1705008421
46,eloi mendes,-21.61,-45.5653,298.3,76,95,1.73,BR,1705008422
47,cabo san lucas,22.8909,-109.9124,298.49,59,40,7.72,MX,1705008141
48,kholmsk,47.0511,142.0569,268.42,90,100,8.09,RU,1705008424
49,burao,9.5221,45.5336,287.32,71,26,4.37,SO,1705008424
50,brookings,44.3114,-96.7984,257.29,77,0,5.14,US,1705008424
51,colonia,50.9333,6.95,273.63,78,66,0.83,DE,1705008136
52,padang,-0.9492,100.3543,298.18,91,100,1.43,ID,1705008425
53,playas,-2.6333,-80.3833,299.12,78,98,4.21,EC,1705008425
54,isafjordur,66.0755,-23.124,277.24,95,100,2.11,IS,1705008426
55,mossel bay,-34.1831,22.146,292.11,94,42,1.41,ZA,1705008426
56,margate,51.3813,1.3862,279.09,91,100,3.58,GB,1705008256
57,uturoa,-16.7333,-151.4333,301.05,74,100,4.64,PF,1705008426
58,klyuchi,52.2667,79.1667,254.17,85,65,6.37,RU,1705008427
59,constantia,44.1833,28.65,270.76,60,3,7.47,RO,1705008353
60,badger,64.8,-147.5333,254.08,77,40,2.57,US,1705008432
61,iqaluit,63.7506,-68.5145,255.2,77,100,1.03,CA,1705008433
62,ras al khaimah city,25.7895,55.9432,286.27,88,0,1.54,AE,1705008433
63,polyarnyye zori,67.3661,32.4981,258.7,100,96,1.6,RU,1705008434
64,blackmans bay,-43.0167,147.3167,291.22,84,43,1.31,AU,1705008434
65,vila franca do campo,37.7167,-25.4333,291.42,99,96,8.99,PT,1705008434
66,dudinka,69.4058,86.1778,257.94,91,100,4.47,RU,1705008435
67,kainantu,-6.2887,145.8655,289.95,96,79,1.02,PG,1705008435
68,vorgashor,67.5833,63.95,250.3,92,100,7.45,RU,1705008435
69,akureyri,65.6835,-18.0878,279.11,70,40,6.69,IS,1705008435
70,bima,-8.4667,118.7167,298.86,90,81,0.82,ID,1705008436
71,ponta delgada,37.7333,-25.6667,291.59,77,40,8.23,PT,1705008436
72,belmonte,-15.8631,-38.8828,299.48,75,20,2.44,BR,1705008436
73,puerto natales,-51.7236,-72.4875,289.4,51,75,5.14,CL,1705008436
74,saint-philippe,-21.3585,55.7679,298.92,83,71,5.2,RE,1705008437
75,port lincoln,-34.7333,135.8667,293.21,72,0,2.19,AU,1705008437
76,hithadhoo,-0.6,73.0833,301.63,76,98,6.18,MV,1705008437
77,flying fish cove,-10.4217,105.6791,297.97,94,95,2.06,CX,1705008438
78,tura,25.5198,90.2201,284.54,66,0,1.43,IN,1705008438
79,galliano,29.4422,-90.2992,294.82,87,100,5.48,US,1705008438
80,isla vista,34.4133,-119.861,290.62,36,0,3.09,US,1705008439
81,lusambo,-4.9667,23.45,294.38,97,98,0.28,CD,1705008439
82,tippi,7.2,35.45,296.39,44,100,0.76,ET,1705008439
83,bredasdorp,-34.5322,20.0403,292.54,94,42,1.8,ZA,1705008439
84,shalkar,47.8288,59.6258,261.44,91,73,5.95,KZ,1705008440
85,cidade velha,14.9167,-23.6167,295.41,78,0,5.66,CV,1705008440
86,tolanaro,-25.0319,46.9987,299.19,89,20,10.8,MG,1705008446
87,stanley,54.868,-1.6985,277.48,94,75,2.57,GB,1705008446
88,yellowknife,62.456,-114.3525,233.44,67,75,1.54,CA,1705008446
89,amga,60.8953,131.9608,240.29,98,100,0.31,RU,1705008446
90,port macquarie,-31.4333,152.9167,296.83,74,16,1.54,AU,1705008297
91,kalemie,-5.9475,29.1947,294.01,88,100,1.91,CD,1705008447
92,gaspe,48.8334,-64.4819,274.1,74,75,5.14,CA,1705008448
93,kingston,17.997,-76.7936,303.28,67,29,1.34,JM,1705008345
94,celestun,20.8667,-90.4,300.32,69,85,2.84,MX,1705008448
95,howrah,22.5892,88.3103,286.15,88,0,2.57,IN,1705008448
96,qaqortoq,60.7167,-46.0333,266.64,94,100,1.6,GL,1705008449
97,isangel,-19.55,169.2667,300.72,82,100,4.09,VU,1705008449
98,mokhsogollokh,61.4681,128.9203,241.61,99,100,0.61,RU,1705008449
99,castillos,-34.1667,-53.8333,294.02,61,47,4.78,UY,1705008450
100,lashio,22.9333,97.75,281.87,86,48,0.81,MM,1705008450
101,east london,-33.0153,27.9116,295.56,90,92,5.54,ZA,1705008301
102,plonsk,52.6235,20.3755,272.93,77,11,5.62,PL,1705008451
103,aasiaat,68.7098,-52.8699,255.46,99,96,3.64,GL,1705008451
104,cockburn town,21.4612,-71.1419,299.21,84,13,6.87,TC,1705008452
105,hermanus,-34.4187,19.2345,294.14,83,88,3.01,ZA,1705008452
106,puente nacional,5.8774,-73.6781,295.32,83,59,1.44,CO,1705008452
107,fortuna,40.5982,-124.1573,283.67,74,40,0.45,US,1705008452
108,bandarbeyla,9.4942,50.8122,298.13,77,52,7.16,SO,1705008344
109,igarka,67.4667,86.5833,248.85,97,92,3.48,RU,1705008453
110,ust-nera,64.5667,143.2,236.32,98,100,1.72,RU,1705008453
111,saldanha,-33.0117,17.9442,292.18,98,99,5.41,ZA,1705008454
112,karoi,-16.8099,29.6925,291.87,98,100,2.28,ZW,1705008454
113,port-gentil,-0.7193,8.7815,299.13,94,20,1.03,GA,1705008454
114,sechura,-5.5569,-80.8222,300.11,64,24,6.29,PE,1705008455
115,longyearbyen,78.2186,15.6401,257.06,72,0,4.12,SJ,1705008455
116,punta arenas,-53.15,-70.9167,288.21,47,0,12.86,CL,1705008456
117,richards bay,-28.783,32.0377,296.54,97,49,2.76,ZA,1705008315
118,bonthe,7.5264,-12.505,300.54,81,62,3.95,SL,1705008456
119,chonchi,-42.6128,-73.8092,291.71,54,34,1.45,CL,1705008456
120,arraial do cabo,-22.9661,-42.0278,302.13,65,40,7.72,BR,1705008456
121,rundu,-17.9333,19.7667,293.86,91,100,1.34,NA,1705008457
122,sitka,57.0531,-135.33,266.09,38,0,6.69,US,1705008457
123,kone,-21.0595,164.8658,301.42,70,20,2.87,NC,1705008457
124,lompoc,34.6391,-120.4579,289.09,46,0,6.69,US,1705008445
125,hawaiian paradise park,19.5933,-154.9731,301.5,86,20,3.6,US,1705008458
126,prineville,44.2999,-120.8345,277.1,62,100,9.77,US,1705008458
127,pulaski,34.7668,-92.3001,288.96,79,58,5.36,US,1705008458
128,steszew,52.2837,16.7009,274.41,97,100,2.06,PL,1705008459
129,st. john's,47.5649,-52.7093,275.25,96,100,7.2,CA,1705008305
130,guixi,28.2886,117.2133,280.46,67,6,1.1,CN,1705008459
131,miles city,46.4083,-105.8406,257.69,66,20,3.09,US,1705008459
132,zhanaozen,43.3,52.8,271.18,66,12,4.38,KZ,1705008460
133,argostolion,38.1811,20.489,282.45,56,100,2.87,GR,1705008460
134,saipan,15.1355,145.701,299.54,83,40,3.09,MP,1705008460
135,gering,41.8258,-103.6605,262.84,78,100,4.12,US,1705008460
136,abepura,-2.6333,140.5833,297.6,94,20,1.03,ID,1705008461
137,laguna,38.421,-121.4238,286.31,44,0,2.57,US,1705008461
138,urucara,-2.5364,-57.76,301.37,82,48,1.19,BR,1705008461
139,kristinestad,62.2743,21.376,264.32,90,100,2.66,FI,1705008461
140,ad dilam,23.9915,47.1627,290.38,27,12,5.28,SA,1705008462
141,namibe,-15.1961,12.1522,294.65,72,45,3.22,AO,1705008462
142,saint-pierre,-21.3393,55.4781,298.97,73,0,7.2,RE,1705008462
143,ahfir,34.9537,-2.1003,284.49,88,2,1.21,MA,1705008463
144,port saint john's,-31.6229,29.5448,296.17,91,55,2.96,ZA,1705008463
145,loukhi,66.0764,33.0381,259.13,93,24,2.71,RU,1705008463
146,perelyub,51.8667,50.3667,264.52,93,100,10.49,RU,1705008463
147,anadyr,64.75,177.4833,260.43,84,100,10.0,RU,1705008463
148,marsabit,2.3284,37.9899,296.36,38,91,5.02,KE,1705008464
149,horta,38.5333,-28.6333,288.72,89,75,15.95,PT,1705008464
150,carbonear,47.7332,-53.2148,275.5,95,100,2.72,CA,1705008464
151,phan rang-thap cham,11.5667,108.9833,293.08,88,54,3.23,VN,1705008465
152,aberdeen,57.1437,-2.0981,277.42,96,100,3.6,GB,1705008298
153,acarau,-2.8856,-40.12,301.1,75,18,6.69,BR,1705008465
154,agat village,13.3886,144.6585,300.21,92,40,2.57,GU,1705008465
155,sinabang,2.4803,96.3801,299.7,81,100,0.35,ID,1705008466
156,basco,20.4487,121.9702,294.15,69,100,7.59,PH,1705008466
157,jackson,42.4165,-122.8345,280.14,79,75,0.89,US,1705008197
158,sarikei,2.1167,111.5167,296.93,99,100,0.4,MY,1705008466
159,berezovo,63.9381,65.0419,251.09,91,100,4.83,RU,1705008467
160,susuman,62.7833,148.1667,229.81,100,99,0.45,RU,1705008467
161,iskateley,67.6803,53.1512,246.69,100,100,2.37,RU,1705008468
162,saint-francois,46.4154,3.9054,270.73,100,8,0.0,FR,1705008468
163,talnakh,69.4865,88.3972,257.71,85,100,3.29,RU,1705008468
164,juneau,58.3019,-134.4197,262.15,37,20,6.17,US,1705008468
165,evanston,42.0411,-87.6901,274.85,71,75,3.6,US,1705008469
166,amungan,15.3652,119.9582,296.53,80,15,2.34,PH,1705008469
167,chaman,30.9236,66.4512,284.72,22,100,1.71,PK,1705008469
168,remire-montjoly,4.9167,-52.2667,302.17,74,75,5.66,GF,1705008469
169,papatowai,-46.5619,169.4708,289.61,62,75,6.28,NZ,1705008470
170,ta`u,-14.2336,-169.5144,301.7,72,80,3.04,AS,1705008470
171,abbeville,50.1,1.8333,276.2,93,60,2.43,FR,1705008470
172,port augusta,-32.5,137.7667,300.33,33,0,2.47,AU,1705008470
173,ad diwaniyah,31.9905,44.9306,284.2,65,99,1.69,IQ,1705008471
174,at taj,24.2049,23.2857,284.92,58,87,2.83,LY,1705008471
175,petropavlovsk-kamchatsky,53.0452,158.6483,253.58,55,0,3.0,RU,1705008471
176,puerto ayora,-0.7393,-90.3518,302.13,94,69,4.02,EC,1705008471
177,avarua,-21.2078,-159.775,299.18,78,75,5.14,CK,1705008472
178,udachny,66.4167,112.4,235.54,99,82,2.05,RU,1705008472
179,jamestown,42.097,-79.2353,275.92,96,100,5.14,US,1705008472
180,shitanjing,39.2342,106.3439,273.13,24,40,1.64,CN,1705008472
181,nurpur kalan,31.1667,76.4833,281.45,38,0,1.97,IN,1705008473
182,uchiza,-8.4592,-76.4633,301.54,72,92,0.67,PE,1705008473
183,nuuk,64.1835,-51.7216,269.49,80,20,9.26,GL,1705008473
184,puerto lopez,4.0845,-72.956,307.38,38,100,3.55,CO,1705008473
185,oranjemund,-28.55,16.4333,290.44,95,3,4.08,NA,1705008474
186,weno,7.4515,151.8468,301.12,74,75,4.12,FM,1705008474
187,aral,40.5156,81.2636,272.68,36,99,2.71,CN,1705008474
188,tralee,52.2704,-9.7026,274.69,92,3,2.01,IE,1705008432
189,san andres,12.5847,-81.7006,303.16,74,40,3.09,CO,1705008475
190,narvik,68.4384,17.4272,273.85,96,100,3.58,NO,1705008475
191,vilyuchinsk,52.9306,158.4028,254.4,67,95,3.37,RU,1705008475
192,kailua-kona,19.6406,-155.9956,299.54,81,20,5.66,US,1705008272
193,belidzhi,41.8918,48.4125,277.73,78,100,5.13,RU,1705008476
194,dalandzadgad,43.5708,104.425,268.79,51,0,1.7,MN,1705008476
195,pader,3.05,33.2167,301.04,29,100,1.66,UG,1705008458
196,korla,41.7597,86.1469,269.66,63,87,1.14,CN,1705008477
197,aswan,24.0934,32.907,287.79,42,25,5.45,EG,1705008477
198,ilulissat,69.2167,-51.1,266.16,79,75,3.09,GL,1705008465
199,es castell,39.8795,4.2854,282.53,100,75,2.06,ES,1705008477
200,shingu,33.7333,135.9833,277.45,82,0,2.89,JP,1705008477
201,guerrero negro,27.9769,-114.0611,290.43,57,35,11.62,MX,1705008478
202,queenstown,-31.8976,26.8753,292.29,86,65,2.76,ZA,1705008390
203,progreso,21.2833,-89.6667,306.21,60,85,3.18,MX,1705008478
204,alofi,-19.0595,-169.9187,300.09,83,99,7.72,NU,1705008478
205,shimo-furano,43.35,142.3833,269.69,96,95,1.83,JP,1705008479
206,nova xavantina,-14.6667,-52.35,295.99,93,100,0.8,BR,1705008479
207,kodiak,57.79,-152.4072,276.88,93,100,11.83,US,1705008357
208,fort st. john,56.2499,-120.8529,241.09,62,75,2.57,CA,1705008480
209,plettenberg bay,-34.0527,23.3716,293.17,92,17,0.96,ZA,1705008480
210,concepcion,-36.827,-73.0498,295.04,53,0,6.69,CL,1705008480
211,mumbwa,-14.9783,27.0619,290.95,98,100,2.2,ZM,1705008480
212,lycksele,64.5954,18.6735,272.83,86,100,3.09,SE,1705008481
213,carcare,44.3541,8.2921,278.79,87,1,2.24,IT,1705008481
214,contamana,-7.3333,-75.0167,302.45,64,84,2.04,PE,1705008481
215,tarut,26.5733,50.0369,292.26,64,5,5.61,SA,1705008482
216,lihue,21.9789,-159.3672,295.92,65,100,5.66,US,1705008270
217,san juan,-31.5375,-68.5364,302.62,35,86,4.77,AR,1705008450
218,la dorada,5.4478,-74.6631,305.0,59,10,1.43,CO,1705008483
219,olupona,7.6,4.1833,299.97,17,9,0.79,NG,1705008483
220,puerto quijarro,-17.7833,-57.7667,307.25,44,77,2.56,BO,1705008484
221,viedma,-40.8135,-62.9967,295.19,30,0,6.08,AR,1705008484
222,caleta de carquin,-11.0925,-77.6267,297.99,74,71,5.27,PE,1705008484
223,lerwick,60.1545,-1.1494,279.15,75,95,5.38,GB,1705008485
224,whangarei,-35.7317,174.3239,296.39,58,100,0.43,NZ,1705008485
225,sassandra,4.95,-6.0833,299.82,85,41,3.09,CI,1705008485
226,hilo,19.7297,-155.09,299.05,87,20,3.6,US,1705008216
227,kupang,-10.1667,123.5833,300.47,100,75,1.54,ID,1705008486
228,solnechnyy,50.7214,136.6319,248.72,92,8,2.19,RU,1705008486
229,kavaratti,10.5669,72.642,301.22,71,7,1.55,IN,1705008486
230,cambria,35.5641,-121.0808,287.71,56,1,3.58,US,1705008487
231,kayangel,8.0823,134.7173,301.55,70,60,8.54,PW,1705008307
232,novyy urengoy,66.0833,76.6333,246.77,94,100,7.6,RU,1705008487
233,bodo,67.28,14.405,278.17,89,75,12.86,NO,1705008487
234,hamilton,39.1834,-84.5333,282.55,61,0,5.14,US,1705008488
235,mahibadhoo,3.7833,72.9667,300.57,82,99,7.87,MV,1705008488
236,yarmouth,41.7057,-70.2286,279.41,67,100,4.63,US,1705008488
237,inirida,3.8653,-67.9239,302.13,72,98,2.1,CO,1705008488
238,bata,1.8639,9.7658,299.97,81,84,4.23,GQ,1705008489
239,angaur state,6.906,134.13,302.03,71,62,9.87,PW,1705008489
240,mongo,12.1844,18.693,297.41,19,7,2.53,TD,1705008489
241,santa terezinha,-29.9002,-50.0904,295.55,97,100,2.2,BR,1705008490
242,nagqu,31.5,92.0,258.22,32,0,1.61,CN,1705008491
243,grand falls-windsor,48.9332,-55.6649,275.65,92,97,1.61,CA,1705008491
244,mawlaik,23.6333,94.4167,285.61,79,0,0.48,MM,1705008491
245,natal,-5.795,-35.2094,301.27,74,75,3.09,BR,1705008255
246,jamjamal,35.5365,44.8317,280.19,87,30,3.18,IQ,1705008492
247,banda aceh,5.5577,95.3222,298.68,85,100,4.77,ID,1705008492
248,tank,32.2217,70.3793,285.89,33,67,0.78,PK,1705008493
249,nar'yan-mar,67.6713,53.087,246.84,100,99,2.46,RU,1705008493
250,cooper's town,26.8667,-77.5167,293.92,85,100,5.42,BS,1705008493
251,kingaroy,-26.5333,151.8333,294.85,66,3,5.51,AU,1705008494
252,minas de marcona,-15.2119,-75.1103,294.4,67,40,6.62,PE,1705008494
253,puerto el triunfo,13.2833,-88.55,302.69,60,5,3.93,SV,1705008494
254,quelimane,-17.8786,36.8883,302.12,84,0,3.09,MZ,1705008495
255,la passe,45.5549,-0.8967,275.38,79,1,5.61,FR,1705008495
256,lodja,-3.4833,23.4333,294.84,95,100,0.8,CD,1705008495
257,shagonar,51.5333,92.8,254.16,97,39,2.4,RU,1705008495
258,haiku-pauwela,20.9219,-156.3051,297.74,75,75,9.26,US,1705008496
259,utrik,11.2278,169.8474,299.61,79,22,10.85,MH,1705008496
260,miyako,39.6367,141.9525,277.32,54,36,5.59,JP,1705008496
261,carloforte,39.145,8.3058,285.48,81,92,7.76,IT,1705008496
262,mersing,2.4312,103.8405,297.1,100,40,1.03,MY,1705008497
263,warman,52.3168,-106.5679,247.09,63,75,4.12,CA,1705008497
264,nemuro,43.3236,145.575,274.82,73,100,11.82,JP,1705008497
265,atafu village,-8.5421,-172.5159,301.82,77,100,4.38,TK,1705008497
266,spassk-ryazanskiy,54.4072,40.3806,259.47,84,97,6.34,RU,1705008498
267,codrington,-38.2667,141.9667,289.13,75,28,3.6,AU,1705008498
268,usinsk,65.9939,57.5281,250.41,97,100,8.05,RU,1705008498
269,tatarbunary,45.8373,29.6142,271.73,80,100,3.83,UA,1705008498
270,yuxi,24.355,102.5422,280.16,89,75,1.27,CN,1705008499
271,bhadra,29.1167,75.1667,282.67,33,1,1.66,IN,1705008499
272,margaret river,-33.95,115.0667,288.61,79,70,5.94,AU,1705008499
273,praia da vitoria,38.7333,-27.0667,289.68,82,40,12.87,PT,1705008499
274,sept-iles,50.2001,-66.3821,271.39,94,100,6.17,CA,1705008500
275,mil'kovo,55.6078,37.7956,263.34,74,100,7.06,RU,1705008500
276,gamba,-2.65,10.0,298.4,84,70,0.17,GA,1705008501
277,sakchu-up,40.3894,125.0467,260.96,94,5,1.12,KP,1705008501
278,waconia,44.8508,-93.7869,263.44,71,83,2.24,US,1705008501
279,nema,57.5067,50.5011,259.29,95,100,3.39,RU,1705008501
280,homer,59.6425,-151.5483,277.09,60,0,5.14,US,1705008502
281,mar del plata,-38.0023,-57.5575,290.16,61,40,5.36,AR,1705008502
282,enewetak,11.3474,162.3373,300.16,76,79,9.61,MH,1705008502
283,souillac,-20.5167,57.5167,299.36,89,40,4.12,MU,1705008502
284,zuni pueblo,35.0725,-108.8506,270.5,78,100,10.87,US,1705008503
285,baiquan,47.5833,126.0833,244.75,93,63,1.69,CN,1705008437
286,polyarnyy,69.1989,33.4478,266.84,75,100,2.16,RU,1705008503
287,eucalyptus hills,32.8798,-116.9467,290.52,32,20,2.24,US,1705008503
288,taroa,8.7058,171.2275,300.41,83,56,9.66,MH,1705008504
289,harstad,68.799,16.5293,273.84,97,100,2.87,NO,1705008504
290,gadzhiyevo,69.2551,33.3362,266.26,75,100,2.15,RU,1705008504
291,xinyuan,37.3,99.0,262.14,27,0,2.6,CN,1705008504
292,mitsamiouli,-11.3847,43.2844,299.51,83,100,3.33,KM,1705008505
293,kindu,-2.95,25.95,293.87,98,99,1.03,CD,1705008505
294,nikolayevsk-on-amure,53.1406,140.73,243.46,100,28,0.9,RU,1705008505
295,lospalos,-8.5186,127.0025,297.79,89,100,4.29,TL,1705008506
296,holualoa,19.6228,-155.9522,298.03,80,20,5.66,US,1705008506
297,karratha,-20.7377,116.8463,303.51,42,64,6.69,AU,1705008506
298,ulanhot,46.0833,122.0833,252.75,88,4,2.32,CN,1705008506
299,mandan,46.8267,-100.8896,255.38,70,0,8.23,US,1705008507
300,freetown,8.484,-13.2299,301.99,79,55,6.17,SL,1705008507
301,tazacorte,28.629,-17.9293,296.01,28,0,7.72,ES,1705008507
302,kuytun,54.3419,101.5036,256.84,92,91,3.67,RU,1705008507
303,nadym,65.5333,72.5167,246.04,97,41,5.08,RU,1705008508
304,jiayuguan,39.8167,98.3,274.46,17,42,2.55,CN,1705008508
305,new norfolk,-42.7826,147.0587,291.88,65,36,1.09,AU,1705008508
306,happy valley-goose bay,53.3168,-60.3315,272.32,86,100,3.09,CA,1705008508
307,barra de santo antonio,-9.4047,-35.5072,300.75,73,26,3.37,BR,1705008509
308,maisi,43.0395,41.2621,274.96,85,98,0.54,GE,1705008509
309,daru,-9.0763,143.2092,299.28,88,100,0.65,PG,1705008509
310,tazovsky,67.4667,78.7,245.65,93,24,5.18,RU,1705008509
311,orapa,-21.2833,25.3667,296.24,80,100,6.95,BW,1705008510
312,olyokminsk,60.3736,120.4264,236.59,100,63,0.75,RU,1705008510
313,lepsy,46.235,78.9456,267.84,84,96,5.91,KZ,1705008510
314,mukalla,14.5425,49.1242,295.13,68,23,2.15,YE,1705008511
315,vernon,50.2581,-119.2691,261.82,48,100,8.49,CA,1705008436
316,nieuw nickerie,5.95,-56.9833,299.87,77,100,4.91,SR,1705008511
317,rongelap,11.1635,166.8941,300.04,75,87,10.22,MH,1705008511
318,lobito,-12.3481,13.5456,298.79,83,98,3.25,AO,1705008512
319,ola,59.5833,151.2833,249.24,90,99,2.13,RU,1705008512
320,darwin,-12.4611,130.8418,299.14,92,75,1.03,AU,1705008274
321,carutapera,-1.195,-46.02,300.46,75,90,3.07,BR,1705008512
322,mana,5.6592,-53.7767,300.39,75,62,3.98,GF,1705008513
323,kerikeri,-35.2268,173.9474,298.1,79,100,1.45,NZ,1705008513
324,severnoye,56.3491,78.3619,246.47,94,49,5.36,RU,1705008513
325,banqiao,25.0143,121.4672,288.18,69,20,0.89,TW,1705008513
326,oamaru,-45.0784,170.9801,290.58,88,72,3.85,NZ,1705008514
327,stornoway,58.2093,-6.3865,276.5,91,100,0.51,GB,1705008514
328,dourbali,11.8091,15.8632,296.08,17,17,4.3,TD,1705008514
329,pathein,16.7833,94.7333,292.38,66,83,2.73,MM,1705008515
330,mokopane,-24.1944,29.0097,298.65,53,100,2.14,ZA,1705008515
331,whitehorse,60.7161,-135.0538,240.98,63,0,2.06,CA,1705008479
332,wau,7.7029,27.9953,299.54,30,49,2.33,SS,1705008516
333,ghat,24.9647,10.1728,289.23,12,42,0.98,LY,1705008516
334,ambovombe,-25.1667,46.0833,297.79,89,12,3.72,MG,1705008516
335,guacimo,10.2104,-83.6807,304.06,55,11,3.16,CR,1705008517
336,lebu,-37.6167,-73.65,289.14,74,1,7.4,CL,1705008517
337,nicoya,10.1483,-85.452,305.22,51,60,1.58,CR,1705008517
338,broome,42.2506,-75.833,276.27,89,100,2.57,US,1705008517
339,salina,38.8403,-97.6114,272.62,83,20,8.23,US,1705008503
340,puri,19.8,85.85,292.44,71,0,3.0,IN,1705008518
341,el bauga,18.262,33.9081,294.0,14,29,7.67,SD,1705008518
342,afaahiti,-17.75,-149.2833,300.08,79,98,7.48,PF,1705008518
343,howard springs,-12.497,131.047,299.1,95,100,2.73,AU,1705008519
344,osh,40.5151,72.8083,277.51,93,75,2.0,KG,1705008519
345,islamkot,24.6997,70.177,289.36,23,0,3.06,PK,1705008519
346,inarajan village,13.2736,144.7484,300.23,94,100,5.41,GU,1705008519
347,port alfred,-33.5906,26.891,293.81,97,80,8.14,ZA,1705008520
348,anar darah,32.7587,61.654,284.04,24,100,1.47,AF,1705008520
349,geithain,51.05,12.7167,271.22,91,100,2.57,DE,1705008520
350,bozoum,6.3193,16.3799,295.58,18,84,1.7,CF,1705008526
351,bom jesus,-9.0744,-44.3586,300.42,74,100,2.08,BR,1705008526
352,pelabuhanratu,-6.9875,106.5514,298.35,92,100,0.32,ID,1705008526
353,ankang,32.68,109.0172,281.33,73,0,0.7,CN,1705008527
354,ardakan,32.31,54.0175,283.23,14,100,1.57,IR,1705008527
355,thakhek,17.4103,104.8307,292.58,90,3,1.64,LA,1705008527
356,bel ombre,-4.6167,55.4167,300.06,74,40,1.03,SC,1705008527
357,gisborne,-38.6533,178.0042,295.43,58,2,1.25,NZ,1705008528
358,machico,32.7,-16.7667,294.33,87,75,5.14,PT,1705008528
359,smithers,54.7804,-127.1743,252.33,49,20,3.09,CA,1705008528
360,jumla,29.2747,82.1838,276.07,15,0,2.33,NP,1705008528
361,kyaikkami,16.08,97.5675,295.78,68,30,2.44,MM,1705008528
362,bac lieu,9.285,105.7244,297.64,77,30,7.47,VN,1705008529
363,medicine hat,50.0501,-110.6683,252.21,64,100,6.17,CA,1705008529
364,puerto cortez,15.8333,-87.95,307.34,70,14,3.0,HN,1705008529
365,great falls,47.5002,-111.3008,250.4,70,100,6.69,US,1705008529
366,kottaiyur,10.1167,78.8167,295.13,88,54,4.14,IN,1705008530
367,barcelos,41.5388,-8.6151,280.88,81,6,2.91,PT,1705008530
368,pandan,14.0453,124.1694,298.05,83,100,8.64,PH,1705008530
369,ringkobing,56.0901,8.244,272.14,97,40,3.04,DK,1705008530
370,copperas cove,31.1241,-97.9031,297.26,40,0,8.23,US,1705008361
371,sola,-13.8833,167.55,300.97,76,100,6.59,VU,1705008531
372,pointe-noire,-4.7761,11.8635,298.19,94,20,1.54,CG,1705008531
373,merizo village,13.2658,144.6691,300.0,94,100,5.3,GU,1705008531
374,okha,53.5739,142.9478,243.68,99,27,2.75,RU,1705008531
375,shimoda,34.6667,138.95,281.54,55,0,9.37,JP,1705008532
376,misratah,32.3754,15.0925,289.21,36,0,1.83,LY,1705008532
377,kahriz,34.3838,47.0553,278.19,75,100,4.12,IR,1705008382
378,rengasdengklok,-6.1592,107.2981,298.22,94,100,2.87,ID,1705008532
379,uniao da vitoria,-26.23,-51.0864,296.09,96,100,1.61,BR,1705008533
380,kham sakae saeng,15.3322,102.1728,298.1,63,38,0.84,TH,1705008533
381,sur,22.5667,59.5289,293.32,61,1,2.29,OM,1705008533
382,singaraja,-8.112,115.0882,299.65,78,100,2.08,ID,1705008533
383,vorkuta,67.5,64.0,250.59,92,100,7.3,RU,1705008534
384,arkhangel'sk,64.5401,40.5433,253.22,83,0,0.0,RU,1705008476
385,ekibastuz,51.6667,75.3667,253.51,78,3,8.34,KZ,1705008534
386,sao tome,0.3365,6.7273,299.17,89,40,1.54,ST,1705008534
387,narrabri,-30.3167,149.7833,300.11,68,95,0.89,AU,1705008534
388,wattegama,6.7989,81.4808,295.78,88,100,2.7,LK,1705008535
389,ouesso,1.6136,16.0517,297.31,55,71,1.48,CG,1705008535
390,fortaleza,-3.7227,-38.5247,302.63,79,0,4.63,BR,1705008250
391,magadan,59.5667,150.8,250.43,88,99,1.72,RU,1705008535
392,pionerskiy,54.9508,20.2275,271.01,57,34,7.35,RU,1705008536
393,gereida,11.2811,25.1414,294.12,20,20,4.49,SD,1705008536
394,kuusamo,65.9667,29.1833,257.17,85,100,4.12,FI,1705008536
395,kudal,16.0333,73.6833,297.66,42,11,1.72,IN,1705008537
396,kiunga,-6.1219,141.2906,296.87,100,99,0.7,PG,1705008537
397,midelt,32.6852,-4.7451,281.72,37,0,2.38,MA,1705008537
398,bethanie,-26.4833,17.15,295.44,34,1,4.11,NA,1705008537
399,al majaridah,19.1236,41.9111,296.04,79,21,1.25,SA,1705008538
400,corredor,8.64,-82.946,301.61,86,71,1.43,CR,1705008539
401,rio grande,-32.035,-52.0986,299.21,75,99,6.87,BR,1705008539
402,nuku'alofa,-21.1333,-175.2,298.34,100,100,8.23,TO,1705008539
403,ancud,-41.8697,-73.8203,289.73,67,7,2.47,CL,1705008539
404,ducheng,23.2373,111.5317,289.72,71,99,1.04,CN,1705008540
405,mount pearl,47.5166,-52.7813,274.79,96,100,7.2,CA,1705008315
406,mahikeng,-25.8652,25.6442,293.14,83,89,3.6,ZA,1705008540
407,alaghsas,17.0187,8.0168,293.94,11,90,4.96,NE,1705008541
408,le port,-20.9373,55.2919,299.15,79,14,1.63,RE,1705008541
409,jiwani,25.05,61.7417,294.53,53,1,2.99,PK,1705008541
410,shanhecun,44.7,127.2,250.34,100,63,1.89,CN,1705008542
411,west side highway,46.184,-122.9172,279.14,94,100,2.06,US,1705008542
412,akonolinga,3.7667,12.25,294.85,28,100,0.45,CM,1705008543
413,ketchikan,55.3422,-131.6461,266.14,52,0,3.78,US,1705008543
414,kidal,18.4411,1.4078,296.69,11,100,4.32,ML,1705008543
415,barrouallie,13.2333,-61.2667,298.94,78,75,4.12,VC,1705008543
416,gembu,6.7,11.2667,290.39,19,69,1.93,NG,1705008544
417,port kembla,-34.4667,150.9,297.79,90,47,1.09,AU,1705008544
418,puerto baquerizo moreno,-0.9,-89.6,301.7,79,75,6.69,EC,1705008544
419,amalapuram,16.5833,82.0167,293.87,92,27,1.56,IN,1705008544
420,rikaze,29.25,88.8833,269.71,14,0,1.15,CN,1705008545
421,tofol,5.3248,163.0078,301.05,81,15,10.62,FM,1705008545
422,wailua homesteads,22.0669,-159.378,295.59,83,100,5.66,US,1705008545
423,ribeira brava,32.65,-17.0667,294.33,66,56,7.55,PT,1705008546
424,ndele,8.4109,20.6473,296.85,21,42,2.01,CF,1705008546
425,bayanhongor,46.7167,100.1167,258.96,75,86,1.93,MN,1705008546
426,laojunmiao,39.8333,97.7333,274.29,15,38,4.3,CN,1705008546
427,omdurman,15.6445,32.4777,297.31,25,4,8.36,SD,1705008547
428,nova vicosa,-17.8919,-39.3719,299.63,75,3,4.77,BR,1705008547
429,dali,25.7,100.1833,277.63,67,0,0.66,CN,1705008547
430,shihezi,44.3,86.0333,268.65,79,93,1.3,CN,1705008547
431,luleburgaz,41.4039,27.3592,269.79,87,83,0.91,TR,1705008547
432,lensk,60.7253,114.9278,240.47,96,17,1.72,RU,1705008548
433,grenada,37.1882,-3.6067,279.77,81,0,0.51,ES,1705008548
434,johvi,59.3592,27.4211,263.85,85,20,3.34,EE,1705008548
435,raja,8.4596,25.678,296.65,31,10,2.03,SS,1705008549
436,kargasok,59.0556,80.8572,248.13,88,48,5.81,RU,1705008549
437,lyskovo,56.0328,45.0422,258.22,93,100,5.65,RU,1705008549
438,saurimo,-9.6608,20.3916,291.64,98,100,1.89,AO,1705008549
439,boguchany,58.3814,97.4531,256.4,97,100,1.79,RU,1705008550
440,cileunyi,-6.9389,107.7528,295.92,94,100,1.0,ID,1705008550
441,delphos,40.8434,-84.3416,274.8,82,95,2.68,US,1705008289
442,komatipoort,-25.4332,31.9548,297.62,95,99,1.44,ZA,1705008551
443,garoowe,8.4054,48.4845,294.41,72,61,5.77,SO,1705008551
444,suwayr,30.1171,40.3893,281.67,53,0,2.84,SA,1705008551
445,sarmiento,-45.5882,-69.07,298.78,20,78,2.85,AR,1705008552
446,charters towers,-20.1,146.2667,296.58,81,82,5.58,AU,1705008552
447,monclova,26.9,-101.4167,303.18,10,3,2.68,MX,1705008552
448,changyon,38.2508,125.0961,271.9,57,1,3.71,KP,1705008552
449,shalqar,47.8333,59.6,261.44,91,75,5.9,KZ,1705008553
450,omu-aran,8.1333,5.1,298.94,11,33,0.86,NG,1705008553
451,rudnichnyy,59.617,52.4703,256.98,96,100,2.6,RU,1705008553
452,alice springs,-23.7,133.8833,297.9,50,40,3.06,AU,1705008554
453,tidjikja,18.5564,-11.4271,298.0,12,2,5.15,MR,1705008554
454,atamanovka,51.93,113.63,243.39,97,17,0.79,RU,1705008554
455,talavera,15.6167,120.9333,294.65,89,7,1.47,PH,1705008555
456,huazhou,21.6333,110.5833,290.96,79,94,3.23,CN,1705008555
457,broken hill,-31.95,141.4333,300.33,32,2,5.63,AU,1705008467
458,mccook,40.2019,-100.6257,263.18,72,100,8.23,US,1705008556
459,arno,60.1167,18.6333,272.47,95,87,3.12,SE,1705008556
460,kununurra,-15.7667,128.7333,299.14,94,40,0.0,AU,1705008556
461,lianzhou,24.7811,112.3825,286.2,94,97,0.35,CN,1705008556
462,motueka,-41.1333,173.0167,296.19,53,0,1.08,NZ,1705008556
463,kosh-agach,50.0,88.6667,268.32,63,100,11.62,RU,1705008557
464,west sayville,40.7279,-73.0976,280.81,62,20,4.12,US,1705008557
465,keflavik,64.0049,-22.5624,281.1,100,100,4.12,IS,1705008557
466,jagdalpur,19.0667,82.0333,290.67,64,0,1.69,IN,1705008558
467,gaigeturi,33.4644,126.3183,284.18,58,75,5.66,KR,1705008558
468,pisco,-13.7,-76.2167,300.18,61,0,8.75,PE,1705008319
469,luderitz,-26.6481,15.1594,290.64,84,0,6.96,NA,1705008559
470,ulladulla,-35.35,150.4667,294.77,89,62,1.03,AU,1705008559
471,sitia,35.2,26.0986,284.25,68,98,6.03,GR,1705008559
472,madera acres,37.0191,-120.0668,283.89,57,0,1.54,US,1705008559
473,pangody,65.85,74.4859,247.41,95,82,6.22,RU,1705008560
474,greymouth,-42.4667,171.2,290.7,87,100,1.23,NZ,1705008560
475,hasaki,35.7333,140.8333,270.37,66,19,3.96,JP,1705008560
476,sabang,5.8933,95.3214,300.81,77,99,7.24,ID,1705008560
477,doctor arroyo,23.6667,-100.1833,295.61,10,14,3.02,MX,1705008561
478,lazaro cardenas,17.9583,-102.2,301.25,63,14,5.01,MX,1705008561
479,coruripe,-10.1256,-36.1756,299.47,71,5,4.3,BR,1705008562
480,yaounde,3.8667,11.5167,295.89,100,20,1.03,CM,1705008562
481,hanawa,40.1836,140.7872,274.29,98,87,2.28,JP,1705008562
482,barah,13.7,30.3667,293.37,24,1,6.06,SD,1705008563
483,tsiombe,-25.3,45.4833,298.16,89,17,2.9,MG,1705008563
484,pirallahi,40.4723,50.333,280.23,83,100,4.37,AZ,1705008564
485,kenora,49.8167,-94.4337,261.69,85,100,4.12,CA,1705008564
486,burang,30.25,81.1667,266.24,20,0,1.86,CN,1705008564
487,grand-bassam,5.2118,-3.7388,302.13,83,78,4.48,CI,1705008564
488,kudahuvadhoo,2.6708,72.8944,300.9,79,100,7.28,MV,1705008565
489,gurupi,-11.7292,-49.0686,298.95,81,100,2.73,BR,1705008566
490,kenai,60.5544,-151.2583,267.18,86,0,6.69,US,1705008566
491,sarkikaraagac,38.0794,31.3664,276.55,83,100,0.88,TR,1705008566
492,kavieng,-2.5744,150.7967,301.14,77,100,1.45,PG,1705008567
493,folkston,30.8305,-82.0098,287.51,65,100,0.64,US,1705008567
494,callao,-12.0667,-77.15,299.31,65,20,6.69,PE,1705008330
495,champerico,14.3,-91.9167,306.45,60,10,4.83,GT,1705008568
496,kaoma,-14.7833,24.8,290.09,98,99,1.59,ZM,1705008569
497,bafoulabe,13.8065,-10.8321,304.04,13,16,2.63,ML,1705008569
498,ingeniero jacobacci,-41.3427,-69.5448,297.93,19,21,6.46,AR,1705008569
499,chibougamau,49.9168,-74.3659,258.94,78,100,4.63,CA,1705008570
500,marine corps base hawaii - mcbh,21.4453,-157.7513,299.13,59,0,2.68,US,1705008570
501,boulder city,35.9786,-114.8325,281.91,21,0,6.69,US,1705008308
502,touros,-5.1989,-35.4608,300.31,68,0,5.61,BR,1705008575
503,tangalle,6.024,80.7911,297.24,80,80,6.47,LK,1705008575
504,mount isa,-20.7333,139.5,297.02,94,100,3.6,AU,1705008576
505,teknaf,20.8624,92.3058,288.71,67,0,5.63,BD,1705008576
506,nova sintra,14.8667,-24.7167,293.67,68,86,5.1,CV,1705008576
507,cadale,2.7603,46.3222,298.58,82,94,6.68,SO,1705008576
508,beacon square,28.2086,-82.7554,291.47,72,100,1.34,US,1705008577
509,zaragoza,41.6561,-0.8773,277.05,69,0,6.17,ES,1705008577
510,male,4.1748,73.5089,301.12,89,75,11.83,MV,1705008577
511,koungheul,13.9833,-14.8,303.63,14,42,1.9,SN,1705008577
512,boca suno,-0.7167,-77.1333,303.92,58,87,1.44,EC,1705008578
513,midvagur,62.0511,-7.1939,279.61,87,100,6.69,FO,1705008578
514,corn island,12.1694,-83.0418,300.91,76,11,3.64,NI,1705008578
515,akjoujt,19.6969,-14.4164,297.61,12,25,1.74,MR,1705008578
516,fort mcmurray,56.7268,-111.381,238.92,68,100,2.06,CA,1705008578
517,stjordalshalsen,63.4681,10.9262,278.15,81,75,11.83,NO,1705008579
518,san antonio de los banos,22.8911,-82.4992,301.14,74,75,3.09,CU,1705008579
519,motygino,58.1831,94.7592,256.85,98,100,0.68,RU,1705008579
520,bolotnoye,55.6717,84.3981,255.06,88,100,6.13,RU,1705008579
521,awjilah,29.1081,21.2869,287.49,60,10,3.11,LY,1705008580
522,bureya,49.8133,129.8131,238.12,99,85,0.48,RU,1705008580
523,christchurch,-43.5333,172.6333,296.23,67,75,7.72,NZ,1705008539
524,cidreira,-30.1811,-50.2056,295.81,94,100,2.72,BR,1705008580
525,pirane,-25.7324,-59.1088,295.24,97,100,2.32,AR,1705008581
526,bandar-e anzali,37.4727,49.4622,281.39,82,96,1.52,IR,1705008581
527,luba,3.4568,8.5547,297.09,77,94,4.92,GQ,1705008581
528,togur,58.3631,82.8265,250.45,90,36,4.92,RU,1705008586
529,nangomba,-10.9,38.5,295.76,98,100,2.05,TZ,1705008587
530,veraval,20.9,70.3667,295.45,46,2,4.54,IN,1705008587
531,miracatu,-24.2814,-47.4597,305.03,56,88,1.96,BR,1705008587
532,quepos,9.4236,-84.1652,302.17,70,25,2.22,CR,1705008587
533,carauari,-4.8828,-66.8958,300.86,76,97,1.12,BR,1705008588
534,la rinconada,37.4873,-5.9826,284.29,88,0,1.03,ES,1705008588
535,mandera,3.9366,41.867,301.29,30,9,3.23,KE,1705008588
536,novyye lyady,58.0536,56.6039,253.83,96,100,3.92,RU,1705008588
537,kolonia town,6.964,158.206,302.21,84,100,6.17,FM,1705008589
538,taoudenni,22.6783,-3.9836,294.07,10,32,4.24,ML,1705008589
539,san patricio,28.017,-97.5169,299.2,55,9,7.55,US,1705008590
540,peterhead,57.5058,-1.7981,277.37,75,100,4.83,GB,1705008590
541,pacific grove,36.6177,-121.9166,286.71,48,0,2.24,US,1705008590
542,kourou,5.1552,-52.6478,302.18,81,100,2.91,GF,1705008590
543,bandon,51.7469,-8.7425,277.92,93,15,2.23,IE,1705008591
544,glendive,47.1053,-104.7125,255.24,71,0,4.63,US,1705008591
545,lamar,33.6668,-95.5836,294.25,53,0,10.29,US,1705008591
546,tionk essil,12.7856,-16.5217,299.18,59,62,5.01,SN,1705008591
547,kristiansund,63.1115,7.732,277.51,81,75,8.23,NO,1705008592
548,loa janan,-0.583,117.095,296.82,96,84,0.32,ID,1705008592
549,manaure,11.7751,-72.4445,303.92,56,2,8.39,CO,1705008592
550,luwuk,-0.9516,122.7875,298.73,79,100,1.94,ID,1705008592
551,vyksa,55.3175,42.1744,259.03,90,100,5.38,RU,1705008593
552,monrovia,6.3005,-10.7969,299.02,81,74,4.38,LR,1705008451
553,kargopol',61.5071,38.9456,259.65,92,100,3.51,RU,1705008593
554,primero de enero,21.9469,-78.4283,304.54,48,56,1.99,CU,1705008593
