City_ID,City,Lat,Lng,Max Temp,Humidity,Cloudiness,Wind Speed,Country,Date
0,iskateley,67.6803,53.1512,248.85,100,93,2.57,RU,1705019778
1,waitangi,-43.9535,-176.5597,288.78,94,30,7.25,NZ,1705019778
2,ketchikan,55.3422,-131.6461,265.41,29,0,3.6,US,1705019730
3,iqaluit,63.7506,-68.5145,257.0,84,100,0.0,CA,1705019779
4,port-aux-francais,-49.35,70.2167,277.43,79,100,15.36,TF,1705019780
5,tiksi,71.6872,128.8694,237.28,97,94,3.36,RU,1705019780
6,adamstown,-25.066,-130.1015,297.8,81,46,5.83,PN,1705019781
7,longyearbyen,78.2186,15.6401,257.06,66,0,1.54,SJ,1705019781
8,grytviken,-54.2811,-36.5092,275.65,88,37,4.46,GS,1705019782
9,qarazhal,48.0078,70.7903,253.18,90,7,4.04,KZ,1705019783
10,jamestown,42.097,-79.2353,274.27,97,100,4.63,US,1705019783
11,sinjai,-5.1241,120.253,302.78,70,82,0.63,ID,1705019784
12,hawaiian paradise park,19.5933,-154.9731,300.3,83,100,3.09,US,1705019784
13,fuensalida,40.0529,-4.2072,277.77,69,18,3.58,ES,1705019785
14,jiaojiang,28.6803,121.4428,282.76,51,0,1.17,CN,1705019785
15,badger,64.8,-147.5333,253.14,79,20,0.0,US,1705019786
16,portland,45.5234,-122.6762,280.14,90,100,5.66,US,1705019726
17,haiku-pauwela,20.9219,-156.3051,298.73,68,40,12.35,US,1705019787
18,kamina,-8.7386,24.9906,290.07,98,75,1.49,CD,1705019788
19,port elizabeth,-33.918,25.5701,292.77,95,40,0.51,ZA,1705019789
20,lihue,21.9789,-159.3672,292.92,76,100,3.09,US,1705019789
21,melekeok village,7.4957,134.6367,302.46,74,75,5.14,PW,1705019790
22,edinburgh of the seven seas,-37.0676,-12.3116,290.66,88,94,5.4,SH,1705019790
23,jieshi,22.8134,115.8257,288.53,71,7,3.98,CN,1705019791
24,ribeira grande,38.5167,-28.7,289.14,94,75,12.35,PT,1705019792
25,itoman,26.1247,127.6694,290.16,53,75,3.09,JP,1705019792
26,san antonio de pale,-1.4014,5.6325,299.76,79,100,4.31,GQ,1705019793
27,margaret river,-33.95,115.0667,294.61,58,24,5.56,AU,1705019793
28,punta arenas,-53.15,-70.9167,285.21,54,0,10.8,CL,1705019794
29,rawah,34.4816,41.9093,283.48,76,9,4.03,IQ,1705019794
30,hermanus,-34.4187,19.2345,292.22,90,63,1.92,ZA,1705019795
31,corner brook,48.9667,-57.9484,276.24,93,100,2.16,CA,1705019572
32,kodiak,57.79,-152.4072,276.88,93,100,12.86,US,1705019796
33,kayangel,8.0823,134.7173,301.74,74,32,9.23,PW,1705019796
34,mount isa,-20.7333,139.5,301.02,69,75,5.14,AU,1705019797
35,kavieng,-2.5744,150.7967,302.36,71,79,1.55,PG,1705019797
36,sitka,57.0531,-135.33,266.09,45,0,4.63,US,1705019798
37,gohana,29.1333,76.7,279.73,43,0,2.81,IN,1705019798
38,tiflet,33.8947,-6.3065,281.48,86,32,1.79,MA,1705019799
39,anadyr,64.75,177.4833,260.43,92,100,9.0,RU,1705019799
40,gaffney,35.0718,-81.6498,282.2,46,0,1.4,US,1705019800
41,laguna,38.421,-121.4238,286.56,34,0,1.54,US,1705019665
42,mckinleyville,40.9465,-124.1006,281.77,83,100,2.57,US,1705019801
43,wellston,39.1234,-82.5329,278.52,89,11,1.62,US,1705019801
44,blackmans bay,-43.0167,147.3167,299.0,49,100,3.1,AU,1705019802
45,toliara,-23.35,43.6667,299.47,81,7,0.35,MG,1705019802
46,minas de marcona,-15.2119,-75.1103,291.51,80,19,5.09,PE,1705019803
47,razole,16.4833,81.8333,293.17,96,29,1.7,IN,1705019803
48,yazman,29.1212,71.7446,285.03,30,3,1.75,PK,1705019803
49,salalah,17.0151,54.0924,296.2,68,40,2.06,OM,1705019803
50,bredasdorp,-34.5322,20.0403,291.31,98,35,0.54,ZA,1705019804
51,ilulissat,69.2167,-51.1,264.16,73,60,1.54,GL,1705019804
52,thompson,55.7435,-97.8558,246.24,76,75,1.54,CA,1705019804
53,bandon,51.7469,-8.7425,277.92,93,49,2.47,IE,1705019805
54,bethel,41.3712,-73.414,278.12,70,75,0.0,US,1705019805
55,codrington,-38.2667,141.9667,301.24,36,8,2.07,AU,1705019805
56,west island,-12.1568,96.8225,300.14,94,40,1.03,CC,1705019806
57,kristiansund,63.1115,7.732,277.51,93,100,7.72,NO,1705019806
58,puerto ayora,-0.7393,-90.3518,298.46,94,74,2.24,EC,1705019806
59,st. john's,47.5649,-52.7093,274.9,97,100,2.57,CA,1705019660
60,papatowai,-46.5619,169.4708,292.65,51,96,6.19,NZ,1705019807
61,fort st. john,56.2499,-120.8529,241.09,75,75,2.06,CA,1705019807
62,yellowknife,62.456,-114.3525,233.38,85,20,2.06,CA,1705019703
63,pandan,14.0453,124.1694,297.97,81,100,7.87,PH,1705019807
64,yashan,22.1975,109.9419,290.44,84,99,1.35,CN,1705019807
65,san patricio,28.017,-97.5169,295.12,88,10,7.14,US,1705019808
66,wailua homesteads,22.0669,-159.378,292.59,76,100,3.09,US,1705019808
67,callao,-12.0667,-77.15,297.31,69,20,7.72,PE,1705019723
68,kailua-kona,19.6406,-155.9956,300.13,67,20,7.72,US,1705019744
69,onega,63.9061,38.1404,258.17,98,99,0.6,RU,1705019809
70,suva,-18.1416,178.4415,302.86,79,75,5.14,FJ,1705019809
71,albany,42.6001,-73.9662,275.9,81,86,1.2,US,1705019809
72,college,64.8569,-147.8028,253.19,72,20,0.0,US,1705019810
73,vysokaya gora,55.9128,49.3017,261.25,95,100,3.95,RU,1705019810
74,vilyuchinsk,52.9306,158.4028,256.3,66,10,2.43,RU,1705019810
75,yangambi,0.8102,24.4336,295.94,83,80,0.73,CD,1705019810
76,soio,-6.1349,12.3689,299.43,83,80,2.25,AO,1705019811
77,khagrachhari,23.1,91.9667,281.74,82,0,0.86,BD,1705019811
78,okhotsk,59.3833,143.3,240.52,86,16,4.09,RU,1705019811
79,papao,-17.75,-149.55,302.97,82,100,7.86,PF,1705019812
80,aasiaat,68.7098,-52.8699,255.53,100,98,4.12,GL,1705019812
81,utrik,11.2278,169.8474,299.67,76,47,9.99,MH,1705019812
82,port lincoln,-34.7333,135.8667,300.34,49,0,2.33,AU,1705019812
83,inderbor,48.55,51.7833,271.48,96,100,10.69,KZ,1705019813
84,weno,7.4515,151.8468,303.12,70,40,4.12,FM,1705019761
85,kapuskasing,49.4169,-82.4331,256.2,85,100,2.57,CA,1705019813
86,invercargill,-46.4,168.35,292.6,68,55,7.6,NZ,1705019814
87,vila franca do campo,37.7167,-25.4333,291.42,99,81,7.36,PT,1705019706
88,red hill,33.9996,-79.2581,283.07,54,6,2.25,US,1705019814
89,looe,50.3578,-4.4542,278.55,83,71,6.11,GB,1705019814
90,lebu,-37.6167,-73.65,286.65,86,79,7.44,CL,1705019814
91,hithadhoo,-0.6,73.0833,301.86,73,75,6.82,MV,1705019815
92,sheridan,44.8333,-106.9173,260.36,74,40,3.6,US,1705019815
93,puerto natales,-51.7236,-72.4875,282.07,95,17,2.03,CL,1705019815
94,atafu village,-8.5421,-172.5159,302.15,74,100,3.98,TK,1705019815
95,guangyuan,32.442,105.823,281.44,83,0,0.18,CN,1705019816
96,shalqar,47.8333,59.6,262.73,92,88,6.82,KZ,1705019816
97,mili,6.0815,171.735,300.93,81,92,10.4,MH,1705019817
98,uturoa,-16.7333,-151.4333,301.15,74,99,4.59,PF,1705019818
99,boende,-0.2167,20.8667,295.56,87,21,0.96,CD,1705019818
100,lompoc,34.6391,-120.4579,287.23,52,0,5.66,US,1705019818
101,es castell,39.8795,4.2854,282.53,100,40,3.6,ES,1705019818
102,ouezzane,34.7971,-5.5822,282.66,78,68,1.63,MA,1705019819
103,tura,25.5198,90.2201,283.77,69,0,1.22,IN,1705019819
104,sarupathar,26.1984,93.8094,284.86,83,0,0.68,IN,1705019819
105,isangel,-19.55,169.2667,303.21,70,13,4.19,VU,1705019819
106,hotan,37.0997,79.9269,270.71,49,21,1.2,CN,1705019820
107,talnakh,69.4865,88.3972,254.93,97,100,1.09,RU,1705019602
108,kenora,49.8167,-94.4337,259.69,85,100,4.12,CA,1705019820
109,port moresby,-9.4431,147.1797,304.83,62,40,3.09,PG,1705019820
110,ushuaia,-54.8,-68.3,281.96,57,0,12.35,AR,1705019821
111,tromso,69.6496,18.957,271.16,93,100,0.51,NO,1705019821
112,bandarbeyla,9.4942,50.8122,297.74,78,100,6.06,SO,1705019821
113,hilo,19.7297,-155.09,300.42,83,100,3.09,US,1705019783
114,touros,-5.1989,-35.4608,299.96,77,6,5.62,BR,1705019821
115,port saint john's,-31.6229,29.5448,295.39,93,32,1.85,ZA,1705019822
116,kletskaya,49.3145,43.0584,271.82,91,100,8.44,RU,1705019822
117,whitehorse,60.7161,-135.0538,242.09,74,0,1.03,CA,1705019823
118,gola gokarannath,28.0833,80.4667,279.54,48,0,0.31,IN,1705019823
119,zhangjiakou shi xuanhua qu,40.6103,115.0447,266.75,80,4,1.23,CN,1705019823
120,hukumati azrah,34.1736,69.6457,274.11,31,100,1.48,AF,1705019824
121,cockburn town,21.4612,-71.1419,299.13,78,40,5.14,TC,1705019824
122,masingbi,8.7833,-11.95,296.91,92,7,0.58,SL,1705019825
123,young,-32.6833,-57.6333,294.92,54,71,7.37,UY,1705019825
124,ust-nera,64.5667,143.2,235.33,98,98,1.82,RU,1705019826
125,east london,-33.0153,27.9116,294.49,93,8,3.44,ZA,1705019827
126,kone,-21.0595,164.8658,306.06,52,40,2.8,NC,1705019827
127,mount pearl,47.5166,-52.7813,274.44,97,100,2.57,CA,1705019822
128,juneau,58.3019,-134.4197,261.15,44,20,5.66,US,1705019705
129,gadzhiyevo,69.2551,33.3362,264.8,73,100,2.64,RU,1705019598
130,capitan bado,-23.2667,-55.5333,294.29,93,100,1.04,PY,1705019828
131,tortoli,39.9256,9.6572,284.05,93,75,19.55,IT,1705019829
132,sorong,-0.8833,131.25,301.81,77,100,3.63,ID,1705019829
133,lucaya,26.5333,-78.6667,292.11,94,75,5.14,BS,1705019829
134,nemuro,43.3236,145.575,275.68,93,100,14.0,JP,1705019830
135,obudu,6.6674,9.1716,296.12,14,15,1.57,NG,1705019830
136,kalabo,-14.97,22.6814,292.13,97,95,1.98,ZM,1705019831
137,saint-martin-des-champs,48.5833,-3.8333,280.25,77,100,6.82,FR,1705019831
138,lata,40.1629,-8.3327,279.86,79,53,1.74,PT,1705019831
139,chiroqchi,39.0336,66.5722,278.27,68,100,1.4,UZ,1705019832
140,gebeit,21.0667,36.3167,288.77,87,25,1.21,SD,1705019832
141,poso,-1.3959,120.7524,302.16,70,100,0.63,ID,1705019833
142,metu,8.3,35.5833,288.94,53,96,0.99,ET,1705019833
143,karratha,-20.7377,116.8463,308.25,34,4,3.96,AU,1705019833
144,avarua,-21.2078,-159.775,300.18,65,75,4.12,CK,1705019834
145,kavaratti,10.5669,72.642,301.3,69,41,3.13,IN,1705019834
146,carnarvon,-24.8667,113.6333,297.9,71,1,7.9,AU,1705019834
147,ormara,25.2088,64.6357,293.86,59,0,2.04,PK,1705019835
148,calvinia,-31.4707,19.776,289.5,67,0,1.66,ZA,1705019835
149,darwin,-12.4611,130.8418,299.29,94,40,3.09,AU,1705019738
150,roma,43.2128,-75.4557,275.42,96,100,0.0,US,1705019764
151,starominskaya,46.53,39.0497,273.3,98,100,6.56,RU,1705019837
152,georgetown,5.4112,100.3354,300.11,86,20,3.6,MY,1705019748
153,sinop,41.7711,34.8709,273.57,81,100,0.88,TR,1705019838
154,cambria,35.5641,-121.0808,286.56,51,42,2.58,US,1705019838
155,mandera,3.9366,41.867,298.83,39,2,3.83,KE,1705019838
156,sao paulo de olivenca,-3.3783,-68.8725,296.63,99,97,1.65,BR,1705019839
157,miracema do tocantins,-9.5618,-48.3967,297.41,91,100,1.57,BR,1705019839
158,sao jose da coroa grande,-8.8978,-35.1478,298.67,75,0,2.47,BR,1705019839
159,kidal,18.4411,1.4078,294.42,12,56,3.49,ML,1705019840
160,saint-louis,16.3333,-15.0,295.95,22,100,4.19,SN,1705019840
161,rundu,-17.9333,19.7667,293.1,97,100,0.58,NA,1705019840
162,castillos,-34.1667,-53.8333,290.97,68,94,2.7,UY,1705019841
163,atamyrat,37.8357,65.2106,278.36,66,100,2.39,TM,1705019841
164,sylva,58.0348,56.7635,253.9,96,100,2.49,RU,1705019841
165,al bardiyah,31.7561,25.0865,285.16,66,0,5.84,LY,1705019842
166,shwebo,22.5667,95.7,287.1,76,0,2.59,MM,1705019842
167,aswan,24.0934,32.907,284.76,40,0,3.09,EG,1705019843
168,jining,35.405,116.5814,277.67,58,0,1.42,CN,1705019843
169,olonkinbyen,70.9221,-8.7187,273.83,94,100,7.03,SJ,1705019844
170,birao,10.2849,22.7882,292.03,23,14,2.61,CF,1705019844
171,port mathurin,-19.6833,63.4167,301.83,74,100,5.11,MU,1705019844
172,chulym,55.0997,80.9572,249.48,91,64,7.01,RU,1705019845
173,tazacorte,28.629,-17.9293,293.79,40,0,9.77,ES,1705019846
174,enewetak,11.3474,162.3373,300.31,80,13,8.89,MH,1705019846
175,lautoka,-17.6167,177.4667,304.07,70,40,5.14,FJ,1705019847
176,tazovsky,67.4667,78.7,241.18,96,22,4.17,RU,1705019847
177,saipan,15.1355,145.701,302.54,74,20,6.17,MP,1705019847
178,port augusta,-32.5,137.7667,310.03,21,0,3.74,AU,1705019848
179,shetpe,44.1667,52.1167,271.87,87,100,4.17,KZ,1705019849
180,yermakovskoye,53.2831,92.4003,265.72,75,100,7.09,RU,1705019849
181,afaahiti,-17.75,-149.2833,302.08,79,100,6.69,PF,1705019850
182,marquette,46.5333,-87.6335,267.23,84,47,0.67,US,1705019850
183,fada,9.5667,8.3,291.53,12,98,2.36,NG,1705019850
184,san luis,-33.295,-66.3356,294.5,59,7,2.78,AR,1705019851
185,tobelo,1.7284,128.0095,301.29,77,100,1.09,ID,1705019851
186,mendoza,-32.8908,-68.8272,299.89,41,40,2.57,AR,1705019852
187,bilibino,68.0546,166.4372,243.27,94,100,1.21,RU,1705019852
188,khanpur,28.6453,70.6567,284.77,31,4,1.77,PK,1705019853
189,huron,41.1501,-82.5499,274.14,81,9,4.12,US,1705019853
190,ha'il,27.5219,41.6907,283.16,66,0,1.03,SA,1705019854
191,polyarnyy,69.1989,33.4478,265.43,73,100,2.39,RU,1705019602
192,vilyuysk,63.7553,121.6247,244.94,97,100,1.52,RU,1705019854
193,kill devil hills,36.0307,-75.676,281.47,77,0,3.6,US,1705019855
194,stanley,54.868,-1.6985,277.99,96,75,2.57,GB,1705019855
195,slave lake,55.2834,-114.769,240.14,56,100,7.72,CA,1705019856
196,tibu,8.639,-72.7358,299.37,71,0,0.56,CO,1705019856
197,spring creek,40.7266,-115.5859,266.98,87,100,3.44,US,1705019857
198,qinzhou,21.95,108.6167,290.94,83,97,1.7,CN,1705019770
199,port blair,11.6667,92.75,296.17,94,20,1.03,IN,1705019858
200,candolim,15.5181,73.7626,298.15,57,43,3.09,IN,1705019858
201,jalai nur,49.45,117.7,245.86,93,5,1.66,CN,1705019859
202,shakawe,-18.3667,21.85,293.14,96,100,2.41,BW,1705019859
203,corfu,39.62,19.9197,281.93,93,75,0.0,GR,1705019860
204,monrovia,6.3005,-10.7969,298.02,83,12,3.07,LR,1705019860
205,hamilton,39.1834,-84.5333,278.2,78,0,1.79,US,1705019860
206,crane,31.3974,-102.3501,288.67,19,0,14.83,US,1705019861
207,kandahar,31.0,65.75,284.06,26,100,1.91,AF,1705019861
208,mahibadhoo,3.7833,72.9667,301.07,81,100,9.55,MV,1705019861
209,mbanza kongo,-6.267,14.2401,293.5,99,100,0.52,AO,1705019862
210,champerico,14.3,-91.9167,303.45,72,0,2.98,GT,1705019863
211,fortuna,40.5982,-124.1573,281.85,80,100,0.0,US,1705019863
212,najran,17.4924,44.1277,283.51,26,5,0.88,SA,1705019863
213,anqing,30.5092,117.0506,282.98,49,0,1.65,CN,1705019864
214,al jawf,29.5,38.75,281.9,54,0,2.46,SA,1705019864
215,chonchi,-42.6128,-73.8092,290.71,87,10,2.34,CL,1705019864
216,villa ojo de agua,-29.5,-63.6938,295.08,73,94,4.38,AR,1705019865
217,taoudenni,22.6783,-3.9836,291.44,11,5,3.49,ML,1705019865
218,qaqortoq,60.7167,-46.0333,267.95,93,100,2.04,GL,1705019865
219,likisa,-8.6695,125.6875,297.09,70,60,2.27,TL,1705019866
220,vernon,50.2581,-119.2691,257.49,51,74,1.54,CA,1705019866
221,tumayr,25.7039,45.868,289.8,24,100,3.02,SA,1705019866
222,nova sintra,14.8667,-24.7167,293.66,64,0,2.83,CV,1705019867
223,geraldton,-28.7667,114.6,297.38,78,100,4.63,AU,1705019867
224,erseke,40.3378,20.6789,272.37,95,22,1.38,AL,1705019868
225,saga,33.2493,130.2988,284.28,73,75,0.51,JP,1705019868
226,prince albert,53.2001,-105.7677,244.12,69,75,3.09,CA,1705019868
227,sitangkai,4.6628,119.3928,301.41,78,74,6.3,PH,1705019869
228,nyrob,60.733,56.7202,249.18,100,100,1.23,RU,1705019869
229,taksimo,56.3444,114.8794,243.27,87,30,0.39,RU,1705019601
230,ras al khaimah city,25.7895,55.9432,286.27,88,98,2.06,AE,1705019870
231,egilsstadir,65.2653,-14.3948,278.1,70,0,5.66,IS,1705019870
232,vershino-darasunskiy,52.35,115.5167,245.82,95,6,0.91,RU,1705019870
233,illizi,26.4833,8.4667,283.04,17,0,1.07,DZ,1705019871
234,takab,36.4009,47.1133,272.75,88,81,2.59,IR,1705019871
235,luderitz,-26.6481,15.1594,289.37,87,0,5.49,NA,1705019871
236,las trojes,14.0667,-85.9833,292.83,75,6,0.87,HN,1705019872
237,matamey,13.4231,8.4749,291.22,14,5,4.43,NE,1705019872
238,kavak,41.0783,36.0425,270.24,78,100,0.77,TR,1705019873
239,wynyard,-41.0,145.7167,293.7,60,100,2.71,AU,1705019873
240,kruisfontein,-34.0033,24.7314,290.31,93,0,1.46,ZA,1705019873
241,tolanaro,-25.0319,46.9987,298.19,94,20,9.77,MG,1705019874
242,bodo,67.28,14.405,277.17,89,100,12.35,NO,1705019874
243,shar'ya,58.3686,45.5144,255.06,90,100,5.94,RU,1705019874
244,aldinga beach,-35.2793,138.4604,308.01,32,0,1.61,AU,1705019874
245,nazarabad,35.9521,50.6075,278.6,83,100,1.75,IR,1705019875
246,koryazhma,61.3143,47.1691,249.21,93,78,3.62,RU,1705019875
247,ridder,50.355,83.5133,256.2,100,100,1.29,KZ,1705019875
248,tweed heads,-28.1817,153.547,300.37,82,100,9.77,AU,1705019875
249,sona,45.4388,10.8255,276.11,93,0,1.54,IT,1705019876
250,midvagur,62.0511,-7.1939,279.61,87,100,5.14,FO,1705019876
251,satna,24.5833,80.8333,283.58,50,0,1.15,IN,1705019876
252,sao felix do xingu,-6.6447,-51.995,296.01,97,100,0.54,BR,1705019877
253,udachny,66.4167,112.4,238.95,73,100,2.21,RU,1705019877
254,isafjordur,66.0755,-23.124,276.94,92,68,4.31,IS,1705019878
255,muncar,-8.4333,114.3333,302.07,65,100,3.01,ID,1705019878
256,rosetta,31.4044,30.4164,289.2,63,41,6.98,EG,1705019878
257,cabo san lucas,22.8909,-109.9124,295.76,61,75,4.63,MX,1705019495
258,marsh harbour,26.5412,-77.0636,294.85,94,100,5.72,BS,1705019723
259,sayaxche,16.5167,-90.1667,296.35,83,40,1.08,GT,1705019879
260,fale old settlement,-9.3852,-171.2468,302.23,73,12,4.75,TK,1705019880
261,walvis bay,-22.9575,14.5053,290.68,82,18,3.09,NA,1705019880
262,ciudad lazaro cardenas,17.9583,-102.2,297.71,85,15,4.02,MX,1705019880
263,bintulu,3.1667,113.0333,299.38,94,20,0.0,MY,1705019881
264,cabedelo,-6.9811,-34.8339,298.52,75,11,4.5,BR,1705019714
265,tynda,55.1667,124.7167,239.71,98,7,1.19,RU,1705019882
266,yerofey pavlovich,53.9667,121.9667,247.39,95,11,1.5,RU,1705019726
267,ta`u,-14.2336,-169.5144,301.94,69,42,3.02,AS,1705019883
268,vallenar,-28.5708,-70.7581,294.03,51,0,1.2,CL,1705019883
269,talovskiy,51.1144,40.73,261.03,88,100,6.89,RU,1705019884
270,vila velha,-20.3297,-40.2925,299.23,83,0,4.12,BR,1705019884
271,luwingu,-10.2621,29.9271,290.09,97,100,1.16,ZM,1705019885
272,kingston,17.997,-76.7936,298.84,85,22,0.97,JM,1705019885
273,katsuren-haebaru,26.3369,127.8719,290.16,65,75,2.57,JP,1705019885
274,susuman,62.7833,148.1667,229.81,100,100,0.45,RU,1705019886
275,keflavik,64.0049,-22.5624,279.39,100,100,2.57,IS,1705019886
276,shatrovo,56.5167,64.6333,254.06,85,100,7.3,RU,1705019887
277,ulety,51.3572,112.4849,249.49,99,47,0.39,RU,1705019887
278,tongliao,43.6125,122.2653,261.37,81,72,1.95,CN,1705019888
279,kerikeri,-35.2268,173.9474,297.57,56,63,3.63,NZ,1705019888
280,kununurra,-15.7667,128.7333,303.14,79,40,2.57,AU,1705019888
281,yorosso,12.3536,-4.7761,297.57,15,2,4.15,ML,1705019889
282,brush,40.2589,-103.6238,262.04,85,99,4.12,US,1705019889
283,flying fish cove,-10.4217,105.6791,298.97,88,99,2.06,CX,1705019890
284,ndola,-12.9587,28.6366,289.77,99,100,1.5,ZM,1705019891
285,hobyo,5.3505,48.5268,298.71,78,98,7.77,SO,1705019891
286,changleng,28.7,115.8167,284.63,46,0,0.91,CN,1705019892
287,raja,8.4596,25.678,293.49,31,50,1.98,SS,1705019892
288,conceicao da barra,-18.5933,-39.7322,298.19,84,8,3.52,BR,1705019892
289,salyan,39.5936,48.9805,277.33,76,99,4.96,AZ,1705019893
290,nogliki,51.8333,143.1667,242.78,100,44,1.34,RU,1705019893
291,fort bragg,35.139,-79.006,281.56,72,0,0.0,US,1705019895
292,inhambane,-23.865,35.3833,298.56,83,83,1.93,MZ,1705019895
293,mokhsogollokh,61.4681,128.9203,241.61,99,100,0.33,RU,1705019896
294,posse,-14.0931,-46.3694,294.36,89,21,1.0,BR,1705019896
295,nizhnesortymskiy,62.4397,71.7603,250.47,93,100,8.72,RU,1705019896
296,lagos,6.5833,3.75,298.43,93,100,0.41,NG,1705019492
297,xilin hot,43.9667,116.0333,259.59,94,7,2.62,CN,1705019897
298,moyynkum,44.2914,72.9469,273.51,87,14,3.83,KZ,1705019898
299,kievka,50.2619,71.5514,247.31,95,12,4.54,KZ,1705019898
300,beaufort,5.3473,115.7455,301.79,70,89,1.39,MY,1705019899
301,alaghsas,17.0187,8.0168,291.84,13,68,4.95,NE,1705019899
302,lorengau,-2.0226,147.2712,302.87,71,99,3.03,PG,1705019900
303,doba,8.65,16.85,294.28,19,100,1.98,TD,1705019900
304,jasper,37.2001,-94.3502,286.98,47,0,5.14,US,1705019900
305,tual,-5.6667,132.75,302.27,78,91,6.81,ID,1705019901
306,tadine,-21.55,167.8833,301.66,73,25,5.08,NC,1705019902
307,'ain el bell,34.3438,3.2247,278.75,86,19,5.93,DZ,1705019902
308,nueva guinea,11.6876,-84.4562,295.85,90,0,2.55,NI,1705019902
309,kantharalak,14.6406,104.6499,296.46,90,21,2.49,TH,1705019903
310,puerto colombia,10.9878,-74.9547,300.2,84,0,10.16,CO,1705019903
311,hammerfest,70.6634,23.6821,266.4,73,20,5.66,NO,1705019904
312,carbonear,47.7332,-53.2148,275.44,96,99,3.33,CA,1705019905
313,yuzhno-kurilsk,44.0306,145.8556,272.8,78,100,11.3,RU,1705019905
314,usogorsk,63.4106,48.6872,240.19,99,100,1.77,RU,1705019905
315,zavodoukovsk,56.5042,66.5515,252.51,81,100,7.33,RU,1705019906
316,saldanha,-33.0117,17.9442,290.18,98,44,5.29,ZA,1705019906
317,belyy yar,53.6039,91.3903,264.09,73,0,4.0,RU,1705019907
318,tangjiazhuang,39.7333,118.45,271.91,73,1,1.31,CN,1705019907
319,nantucket,41.2835,-70.0995,279.21,65,0,7.2,US,1705019908
320,nuuk,64.1835,-51.7216,270.49,74,40,3.09,GL,1705019908
321,nadym,65.5333,72.5167,242.71,98,16,4.98,RU,1705019909
322,greymouth,-42.4667,171.2,294.41,70,12,3.31,NZ,1705019909
323,ola,59.5833,151.2833,250.2,90,93,1.85,RU,1705019910
324,mana,5.6592,-53.7767,298.43,86,99,3.24,GF,1705019910
325,alice springs,-23.7,133.8833,303.9,48,26,6.71,AU,1705019777
326,colonia,50.9333,6.95,273.69,83,100,1.03,DE,1705019911
327,fisterra,42.9049,-9.2629,276.9,68,0,9.01,ES,1705019912
328,baracoa,20.3467,-74.4958,296.73,89,26,1.24,CU,1705019912
329,satun,6.8333,100.0,296.15,81,100,1.88,TH,1705019913
330,nabire,-3.3667,135.4833,303.11,66,99,1.46,ID,1705019913
331,las toscas,-28.3529,-59.258,296.81,85,83,3.8,AR,1705019913
332,menongue,-14.6585,17.691,289.29,95,100,1.05,AO,1705019914
333,arraial do cabo,-22.9661,-42.0278,300.13,74,75,4.63,BR,1705019914
334,revda,56.801,59.9303,257.19,84,100,4.52,RU,1705019644
335,soto la marina,23.7667,-98.2167,292.85,92,100,3.27,MX,1705019915
336,bani walid,31.7566,13.9942,285.56,26,7,4.09,LY,1705019915
337,naze,28.3667,129.4833,287.66,55,2,4.27,JP,1705019916
338,ancud,-41.8697,-73.8203,286.01,81,6,1.95,CL,1705019918
339,kudymkar,59.0173,54.656,253.31,97,100,2.36,RU,1705019919
340,katsuura,35.1333,140.3,285.9,52,0,11.89,JP,1705019919
341,tralee,52.2704,-9.7026,274.12,93,0,1.8,IE,1705019919
342,ulladulla,-35.35,150.4667,299.76,66,21,4.81,AU,1705019920
343,puerto escondido,15.85,-97.0667,300.61,74,75,3.6,MX,1705019627
344,labuan bajo,-8.4964,119.8877,302.47,74,93,3.42,ID,1705019921
345,kiunga,-6.1219,141.2906,299.18,91,100,0.4,PG,1705019921
346,nuku'alofa,-21.1333,-175.2,298.34,100,100,7.72,TO,1705019922
347,wainwright,52.839,-110.8572,245.27,92,100,4.54,CA,1705019922
348,tegucigalpa,14.0818,-87.2068,298.57,57,20,3.09,HN,1705019794
349,itaituba,-4.2761,-55.9836,297.17,97,95,0.84,BR,1705019923
350,sisimiut,66.9395,-53.6735,262.5,75,83,3.88,GL,1705019923
351,la passe,45.5549,-0.8967,274.28,81,5,5.13,FR,1705019923
352,blacksburg,37.2296,-80.4139,277.14,72,0,0.0,US,1705019924
353,kyzylorda,44.8528,65.5092,259.16,85,40,3.0,KZ,1705019924
354,mar del plata,-38.0023,-57.5575,288.12,66,0,3.58,AR,1705019763
355,swakopmund,-22.6833,14.5333,290.62,84,23,1.22,NA,1705019925
356,dalandzadgad,43.5708,104.425,269.04,45,26,1.99,MN,1705019925
357,bechar,31.6167,-2.2167,281.33,34,7,0.0,DZ,1705019925
358,riosucio,5.4216,-75.7032,291.49,96,50,0.73,CO,1705019926
359,ust'-kut,56.7938,105.7672,248.95,100,100,1.34,RU,1705019926
360,rabo de peixe,37.8,-25.5833,290.92,99,40,8.75,PT,1705019927
361,richards bay,-28.783,32.0377,295.85,94,13,1.86,ZA,1705019927
362,selfoss,63.9331,-20.9971,279.84,91,100,4.06,IS,1705019928
363,khandyga,62.6667,135.6,233.75,100,99,1.05,RU,1705019928
364,faya-largeau,17.9257,19.1043,289.51,14,32,7.16,TD,1705019928
365,mezhdurechenskiy,59.6,65.9333,254.29,90,76,4.96,RU,1705019929
366,pechora,65.1472,57.2244,252.51,95,100,4.47,RU,1705019930
367,wanxian,30.8039,108.3897,285.32,78,20,0.65,CN,1705019930
368,askoy,60.4092,5.226,275.79,100,75,2.06,NO,1705019931
369,nayagarh,20.1333,85.1,289.36,86,0,0.78,IN,1705019931
370,namsos,64.4662,11.4957,278.1,75,100,4.63,NO,1705019931
371,trinidad,-14.8333,-64.9,298.74,87,100,1.86,BO,1705019932
372,vodnyy,63.5046,53.4095,248.38,94,100,2.86,RU,1705019932
373,bannu,32.9854,70.6027,284.79,28,100,1.11,PK,1705019932
374,formosa do rio preto,-11.0483,-45.1931,295.06,97,100,0.87,BR,1705019933
375,tsiombe,-25.3,45.4833,297.5,92,24,1.13,MG,1705019933
376,emiliano zapata,18.8333,-99.1833,299.49,31,75,2.57,MX,1705019864
377,horta,38.5333,-28.6333,288.72,89,75,12.35,PT,1705019933
378,zaysan,47.4667,84.8667,263.02,80,100,3.4,KZ,1705019934
379,karwar,14.8,74.1333,296.76,59,93,3.6,IN,1705019934
380,hampton bays,40.869,-72.5176,280.29,80,6,7.15,US,1705019934
381,phu kradueng,16.8843,101.8847,297.25,68,0,0.43,TH,1705019935
382,menaka,15.9182,2.4022,295.77,12,0,4.54,ML,1705019935
383,nha trang,12.25,109.1833,296.15,81,97,2.96,VN,1705019935
384,severo-yeniseyskiy,60.3725,93.0408,254.8,91,100,4.47,RU,1705019936
385,i-n-salah,27.1935,2.4607,289.35,13,0,3.19,DZ,1705019936
386,mil'kovo,55.6078,37.7956,259.42,65,100,7.1,RU,1705019937
387,alo,7.4178,6.7371,297.43,15,74,0.49,NG,1705019937
388,linhares,-19.3911,-40.0722,296.6,91,23,1.87,BR,1705019937
389,bikenibeu village,1.3673,173.1241,304.13,74,100,3.09,KI,1705019938
390,ebon,4.582,168.6964,301.34,77,33,10.37,MH,1705019938
391,childress,34.4264,-100.204,288.11,28,100,5.14,US,1705019938
392,newman,37.3138,-121.0208,285.34,49,19,1.34,US,1705019938
393,louga,58.7372,29.8453,259.81,97,88,3.22,RU,1705019915
394,cassilandia,-19.1133,-51.7342,296.44,88,100,1.86,BR,1705019939
395,happy valley-goose bay,53.3168,-60.3315,273.32,80,75,3.6,CA,1705019940
396,kokkola,63.8385,23.1307,267.61,95,100,5.66,FI,1705019941
397,burgos,42.3394,-3.7079,273.38,93,100,5.14,ES,1705019941
398,ibotirama,-12.1853,-43.2206,297.08,84,83,0.74,BR,1705019942
399,el porvenir,13.7617,-87.3458,300.78,57,6,1.32,HN,1705019942
400,fuglafjordur,62.244,-6.814,279.41,82,100,4.89,FO,1705019943
401,new norfolk,-42.7826,147.0587,299.66,30,100,1.34,AU,1705019944
402,saveh,35.0213,50.3566,280.44,80,100,1.86,IR,1705019944
403,soavinandriana,-19.1667,46.7333,288.7,94,7,1.84,MG,1705019945
404,olyokminsk,60.3736,120.4264,235.23,100,73,0.92,RU,1705019725
405,zav'yalovo,56.7847,53.3776,257.81,87,100,6.71,RU,1705019945
406,murghob,38.1702,73.9667,262.83,80,100,3.17,TJ,1705019946
407,brookings,44.3114,-96.7984,256.51,82,100,2.57,US,1705019946
408,klyuchi,52.2667,79.1667,254.12,83,8,6.27,RU,1705019947
409,levuka,50.1834,-105.4011,244.05,96,100,4.27,CA,1705019947
410,smithers,54.7804,-127.1743,251.33,64,20,0.0,CA,1705019948
411,la sarre,48.8002,-79.1996,253.44,100,38,1.73,CA,1705019948
412,vadso,70.0744,29.7487,265.24,73,75,6.69,NO,1705019948
413,kantunilkin,21.0917,-87.45,297.02,87,53,2.12,MX,1705019949
414,basco,20.4487,121.9702,294.67,64,1,7.52,PH,1705019949
415,banatski karlovac,45.0472,21.0161,268.49,89,100,2.04,RS,1705019950
416,siverskiy,59.3544,30.0783,260.68,95,36,3.21,RU,1705019950
417,saudarkrokur,65.7461,-19.6394,277.25,94,100,5.26,IS,1705019950
418,cururupu,-1.8283,-44.8683,297.98,90,94,1.05,BR,1705019951
419,jaisalmer,26.9147,70.9181,286.67,24,0,2.94,IN,1705019951
420,north platte,41.1239,-100.7654,260.09,83,100,8.49,US,1705019725
421,beyneu,45.3167,55.2,267.81,82,12,5.36,KZ,1705019952
422,pollachi,10.6667,77.0167,295.23,82,96,3.67,IN,1705019952
423,alofi,-19.0595,-169.9187,302.09,70,75,9.26,NU,1705019953
424,mahina,-17.5065,-149.489,303.02,70,40,3.09,PF,1705019911
425,novodvinsk,64.4165,40.8122,250.25,100,81,0.19,RU,1705019953
426,kapoeta,4.7717,33.5903,300.53,28,60,1.59,SS,1705019954
427,maloye ganyushkino,46.6,49.2667,275.41,74,99,9.94,KZ,1705019954
428,san lorenzo de el escorial,40.5914,-4.1474,273.7,82,8,1.11,ES,1705019955
429,cam pha mines,21.0167,107.3,290.15,93,100,4.43,VN,1705019955
430,auki,-8.7676,160.7034,303.03,70,99,1.85,SB,1705019955
431,sur,22.5667,59.5289,292.81,65,0,3.18,OM,1705019956
432,valdivia,-39.8142,-73.2459,294.2,81,100,0.57,CL,1705019956
433,kupang,-10.1667,123.5833,303.47,84,40,6.17,ID,1705019957
434,blonay,46.4678,6.8962,272.23,97,29,1.6,CH,1705019957
435,naracoorte,-36.9579,140.7383,305.06,22,4,2.63,AU,1705019958
436,khorixas,-20.3667,14.9667,291.14,39,99,2.35,NA,1705019958
437,mejit,10.2753,170.8646,299.86,79,15,10.45,MH,1705019959
438,marka,1.7159,44.7717,298.17,80,100,5.95,SO,1705019959
439,fauske,67.2588,15.3918,277.17,99,100,4.23,NO,1705019959
440,rockport,28.0206,-97.0544,294.31,85,20,6.17,US,1705019960
441,kokopo,-4.352,152.2633,302.86,69,100,2.68,PG,1705019960
442,vorgashor,67.5833,63.95,249.45,94,100,6.39,RU,1705019961
443,petropavlovsk-kamchatsky,53.0452,158.6483,255.48,51,75,5.0,RU,1705019961
444,moriki,12.8741,6.4875,292.7,14,4,4.23,NG,1705019961
445,kongsvinger,60.1905,11.9977,272.52,97,42,1.43,NO,1705019962
446,grootfontein,-19.5667,18.1167,293.91,94,100,2.57,NA,1705019962
447,guerrero negro,27.9769,-114.0611,289.48,64,11,8.46,MX,1705019738
448,necochea,-38.5473,-58.7368,285.14,73,0,3.21,AR,1705019717
449,uitenhage,-33.7576,25.3971,292.39,97,21,1.45,ZA,1705019964
450,juan griego,11.0817,-63.9655,300.22,78,4,5.14,VE,1705019964
451,kitimat,54.0524,-128.6534,259.36,73,0,3.01,CA,1705019964
452,energetik,51.7445,58.7934,259.06,94,100,8.85,RU,1705019964
453,holmsund,63.706,20.3641,272.12,86,20,2.57,SE,1705019965
454,dudinka,69.4058,86.1778,256.3,91,100,4.47,RU,1705019965
455,solnechnyy,50.7214,136.6319,245.39,79,9,2.28,RU,1705019965
456,motygino,58.1831,94.7592,259.7,96,100,2.68,RU,1705019965
457,la ronge,55.1001,-105.2842,239.29,68,20,3.6,CA,1705019966
458,lasem,-6.6922,111.4527,300.33,82,96,3.23,ID,1705019966
459,fukuecho,32.6881,128.8419,284.35,62,75,1.03,JP,1705019966
460,puan,35.7281,126.7319,276.09,74,8,3.11,KR,1705019966
461,kisangani,0.5167,25.2,296.73,82,93,0.82,CD,1705019967
462,nguigmi,14.2495,13.1092,291.86,21,5,5.73,NE,1705019967
463,san fernando de apure,7.8878,-67.4724,302.31,41,50,1.82,VE,1705019967
464,kolonia town,6.964,158.206,303.15,74,100,7.72,FM,1705019967
465,olney,39.1532,-77.0669,280.77,68,0,0.0,US,1705019968
466,ringkobing,56.0901,8.244,272.14,95,100,3.81,DK,1705019968
467,hunucma,21.0167,-89.8667,302.2,75,25,2.3,MX,1705019969
468,salavat,53.3837,55.9077,257.75,91,100,9.97,RU,1705019970
469,hassi messaoud,31.6804,6.0729,281.07,36,0,1.54,DZ,1705019971
470,bubaque,11.2833,-15.8333,299.29,65,9,7.18,GW,1705019971
471,baruun-urt,46.6806,113.2792,251.55,88,3,0.66,MN,1705019972
472,gorontalo,0.5412,123.0595,303.56,64,96,1.5,ID,1705019972
473,prachuap khiri khan,12.2167,99.75,299.09,74,86,0.92,TH,1705019972
474,lambarene,-0.7001,10.2406,296.11,95,100,0.94,GA,1705019972
475,barclayville,4.6797,-8.2339,298.35,89,6,2.26,LR,1705019973
476,annau,37.8876,58.516,276.87,81,100,2.06,TM,1705019973
477,pula,44.8683,13.8481,276.46,44,0,3.09,HR,1705019973
478,vorkuta,67.5,64.0,249.87,94,100,6.15,RU,1705019973
479,coquimbo,-29.9533,-71.3436,289.0,88,20,3.6,CL,1705019974
480,togur,58.3631,82.8265,250.45,90,100,4.92,RU,1705019974
481,holualoa,19.6228,-155.9522,298.06,67,20,7.72,US,1705019974
482,saynshand,44.8824,110.1163,258.28,89,14,0.15,MN,1705019974
483,caarapo,-22.6342,-54.8222,294.77,94,100,0.75,BR,1705019975
484,justo daract,-33.8594,-65.1828,295.1,61,11,5.85,AR,1705019975
485,peace river,56.2501,-117.286,240.32,68,20,0.0,CA,1705019711
486,rio grande,-32.035,-52.0986,297.21,69,100,5.86,BR,1705019975
487,kudahuvadhoo,2.6708,72.8944,301.03,80,100,7.46,MV,1705019976
488,san jose,37.3394,-121.895,286.08,44,40,2.57,US,1705019899
489,lushun,38.8,121.2667,269.27,40,0,2.38,CN,1705019976
490,san pedro,14.35,121.0167,301.1,74,40,4.47,PH,1705019977
491,pionki,51.476,21.4499,271.12,94,75,3.09,PL,1705019977
492,surskoye,54.4821,46.7214,256.63,92,100,5.74,RU,1705019977
493,mocimboa,-11.3167,40.35,297.57,95,100,2.58,MZ,1705019977
494,arno,60.1167,18.6333,271.92,95,100,5.11,SE,1705019978
495,skidel',53.5904,24.2478,264.99,91,19,3.01,BY,1705019978
496,ishigaki,24.3448,124.1572,289.22,63,40,2.57,JP,1705019978
497,mugia,43.1041,-9.2179,276.99,70,1,8.78,ES,1705019978
498,palikir - national government center,6.9248,158.1611,302.56,74,100,7.72,FM,1705019979
499,bad duben,51.5917,12.5849,273.52,85,100,2.34,DE,1705019979
500,remire-montjoly,4.9167,-52.2667,300.17,83,75,2.06,GF,1705019979
501,coruripe,-10.1256,-36.1756,298.14,74,2,3.2,BR,1705019979
502,baishan,41.9431,126.4286,259.15,91,80,0.94,CN,1705019979
503,hami,42.8,93.45,268.81,58,100,3.15,CN,1705019980
504,conduaga,8.862,117.4893,301.12,76,72,3.74,PH,1705019980
505,jaru,-10.4389,-62.4664,296.58,95,27,1.17,BR,1705019773
506,tasqala,51.1167,50.3167,270.75,96,100,8.65,KZ,1705019980
507,elkins,38.9259,-79.8467,279.17,70,0,2.57,US,1705019981
508,labytnangi,66.6572,66.4183,254.83,84,100,4.36,RU,1705019981
509,vilhena,-12.7406,-60.1458,292.86,97,94,1.21,BR,1705019981
510,playa blanca,28.8643,-13.8281,291.21,63,0,5.49,ES,1705019981
511,novo selo,41.4139,22.8811,272.66,75,2,2.97,MK,1705019982
512,nyurba,63.2842,118.3319,238.62,99,94,1.51,RU,1705019982
513,lichtenburg,-26.152,26.1597,291.59,80,83,2.88,ZA,1705019982
514,petrozavodsk,61.7849,34.3469,260.85,72,47,5.0,RU,1705019982
515,baidoa,3.1138,43.6498,294.12,86,16,4.57,SO,1705019983
516,luanda,-8.8368,13.2343,299.15,82,20,2.06,AO,1705019983
517,veinticinco de mayo,-35.4323,-60.1727,291.47,65,0,0.89,AR,1705019983
518,mirny,62.5353,113.9611,242.72,74,100,0.89,RU,1705019983
519,nadi,-17.8,177.4167,304.15,70,40,5.14,FJ,1705019984
520,ponta delgada,37.7333,-25.6667,291.59,82,40,8.75,PT,1705019984
521,olonets,60.9847,32.9698,257.81,93,32,3.23,RU,1705019984
522,broome,42.2506,-75.833,276.87,91,100,4.12,US,1705019984
523,dundee,56.5,-2.9667,275.51,96,40,1.54,GB,1705019746
524,la condamine,43.7344,7.4202,285.05,61,0,6.17,MC,1705019986
525,bamboo flat,11.7,92.7167,296.2,94,20,1.03,IN,1705019986
526,la'ie,21.6477,-157.9253,302.13,77,57,7.83,US,1705019986
527,jaleshwar,26.6471,85.8008,281.71,71,0,2.69,NP,1705019987
528,sarikei,2.1167,111.5167,297.09,97,100,0.17,MY,1705019987
529,at taj,24.2049,23.2857,283.58,59,100,2.99,LY,1705019987
530,flin flon,54.7682,-101.865,244.06,69,100,3.09,CA,1705019987
531,smirnykh,49.75,142.8333,255.61,94,100,3.08,RU,1705019988
532,muleba,-1.8397,31.6544,292.96,83,100,2.69,TZ,1705019988
533,mont-dore,-22.2833,166.5833,308.14,96,39,1.41,NC,1705019988
534,tateyama,34.9833,139.8667,283.76,56,0,12.2,JP,1705019988
535,soroti,1.7146,33.6111,295.39,69,100,2.4,UG,1705019988
536,atbasar,51.8,68.3333,249.72,89,99,5.5,KZ,1705019989
537,xinqing,48.2333,129.5,248.71,86,100,0.39,CN,1705019989
538,taltal,-25.4,-70.4833,294.31,72,0,2.63,CL,1705019989
539,santa ana,33.7456,-117.8678,290.5,36,20,4.12,US,1705019828
540,bardai,11.65,7.2333,289.96,16,12,3.53,NG,1705019990
541,tughyl,47.7252,84.2063,262.73,78,91,3.54,KZ,1705019990
542,antigonish,45.6169,-61.9986,276.38,94,100,3.06,CA,1705019741
543,concepcion,-36.827,-73.0498,291.04,63,0,6.17,CL,1705019990
544,dwarka,22.2394,68.9678,293.43,46,0,4.62,IN,1705019990
545,jayapura,-2.5333,140.7,303.81,83,68,1.65,ID,1705019991
546,mwene-ditu,-7.0,23.45,292.14,94,100,1.22,CD,1705019991
547,sabang,5.8933,95.3214,300.94,76,100,8.74,ID,1705019991
548,makhambet,47.6667,51.5833,272.71,94,100,10.99,KZ,1705019991
549,nar'yan-mar,67.6713,53.087,249.44,100,90,2.79,RU,1705019887
550,malabar,-33.9667,151.25,302.04,72,40,7.2,AU,1705019992
551,chui,-33.6971,-53.4616,292.24,69,96,3.18,UY,1705019942
552,surin,14.8818,103.4936,295.36,65,0,3.42,TH,1705019993
553,port sudan,19.6175,37.2164,296.88,76,82,7.81,SD,1705019993
