City_ID,City,Lat,Lng,Max Temp,Humidity,Cloudiness,Wind Speed,Country,Date
0,tsiombe,-25.3,45.4833,298.5,78,32,2.7,MG,1704929484
1,grytviken,-54.2811,-36.5092,277.4,96,100,0.78,GS,1704929484
2,bredasdorp,-34.5322,20.0403,291.14,83,94,2.9,ZA,1704929485
3,bethel,41.3712,-73.414,280.79,62,42,2.68,US,1704929485
4,constantia,44.1833,28.65,267.53,79,7,5.59,RO,1704929485
5,edinburgh of the seven seas,-37.0676,-12.3116,289.34,85,99,1.98,SH,1704929488
6,rio grande,-32.035,-52.0986,299.21,93,100,2.58,BR,1704929321
7,ushuaia,-54.8,-68.3,282.96,71,40,12.86,AR,1704929489
8,gulf shores,30.246,-87.7008,284.3,66,0,4.12,US,1704929490
9,albany,42.6001,-73.9662,278.38,76,77,1.34,US,1704929393
10,tiksi,71.6872,128.8694,241.52,92,100,5.7,RU,1704929491
11,kirakira,-10.4544,161.9205,302.33,76,92,0.92,SB,1704929491
12,masterton,-40.9597,175.6575,298.55,49,49,4.63,NZ,1704929492
13,beroroha,-21.6667,45.1667,297.86,86,28,1.68,MG,1704929493
14,west island,-12.1568,96.8225,299.14,94,100,2.06,CC,1704929494
15,tura,25.5198,90.2201,284.83,61,0,1.27,IN,1704929494
16,adamstown,-25.066,-130.1015,297.95,80,71,3.91,PN,1704929495
17,hurricane,37.1753,-113.2899,281.21,31,44,2.24,US,1704929271
18,chifeng,42.2683,118.9636,264.08,76,3,2.72,CN,1704929496
19,larroque,-33.036,-59.0013,295.11,87,70,2.1,AR,1704929497
20,ribeira grande,38.5167,-28.7,290.25,87,100,12.52,PT,1704929497
21,tarinkot,32.6268,65.8733,279.48,31,19,1.73,AF,1704929498
22,port-aux-francais,-49.35,70.2167,278.45,87,76,10.52,TF,1704929499
23,bilibino,68.0546,166.4372,233.72,100,65,1.79,RU,1704929499
24,webster,42.0501,-71.8801,280.03,67,33,7.22,US,1704929418
25,waitangi,-43.9535,-176.5597,290.27,78,100,8.53,NZ,1704929500
26,newman,37.3138,-121.0208,286.28,77,95,3.35,US,1704929500
27,yarmouth,41.7057,-70.2286,281.56,66,40,8.75,US,1704929501
28,alice springs,-23.7,133.8833,307.16,22,8,2.68,AU,1704929243
29,whitehorse,60.7161,-135.0538,250.58,77,20,2.06,CA,1704929502
30,avarua,-21.2078,-159.775,301.18,69,40,5.14,CK,1704929502
31,khandyga,62.6667,135.6,224.52,98,32,0.83,RU,1704929502
32,al hudaydah,14.7978,42.9545,296.81,69,1,7.06,YE,1704929503
33,northam,51.0333,-4.2167,276.82,80,34,7.74,GB,1704929503
34,nyrob,60.733,56.7202,243.8,100,100,1.59,RU,1704929504
35,isafjordur,66.0755,-23.124,277.65,86,69,4.88,IS,1704929504
36,mount isa,-20.7333,139.5,298.02,94,75,2.06,AU,1704929453
37,mikun',62.3547,50.0771,255.13,97,99,2.33,RU,1704929505
38,tangalle,6.024,80.7911,297.79,90,100,5.74,LK,1704929505
39,qaqortoq,60.7167,-46.0333,271.08,97,100,1.63,GL,1704929506
40,kodiak,57.79,-152.4072,273.88,64,75,2.57,US,1704929506
41,yellowknife,62.456,-114.3525,237.44,68,75,4.12,CA,1704929420
42,sola,-13.8833,167.55,303.52,74,100,0.0,VU,1704929506
43,invercargill,-46.4,168.35,291.49,81,96,4.92,NZ,1704929507
44,talnakh,69.4865,88.3972,244.14,97,56,3.17,RU,1704929507
45,ust-nera,64.5667,143.2,227.93,97,88,0.99,RU,1704929507
46,ilulissat,69.2167,-51.1,272.16,86,75,4.63,GL,1704929508
47,thompson,55.7435,-97.8558,249.24,77,100,4.12,CA,1704929508
48,makhambet,47.6667,51.5833,261.51,92,87,6.18,KZ,1704929508
49,sirte,31.2089,16.5887,286.59,62,96,4.09,LY,1704929509
50,remire-montjoly,4.9167,-52.2667,301.17,78,40,4.63,GF,1704929513
51,lebu,-37.6167,-73.65,286.91,80,0,8.33,CL,1704929514
52,port elizabeth,-33.918,25.5701,293.32,96,100,2.06,ZA,1704929514
53,aasiaat,68.7098,-52.8699,265.96,84,100,5.56,GL,1704929514
54,recani,31.2846,-4.2688,285.04,30,0,1.9,MA,1704929515
55,sabang,5.8933,95.3214,300.97,78,96,7.18,ID,1704929515
56,kota bharu,6.1333,102.2386,299.12,88,20,3.6,MY,1704929445
57,richfield,44.8833,-93.283,270.69,86,100,3.09,US,1704929516
58,kralendijk,12.15,-68.2667,301.14,69,20,7.2,BQ,1704929516
59,melekeok village,7.4957,134.6367,302.46,79,75,2.57,PW,1704929516
60,bundaberg north,-24.8551,152.3425,302.16,76,94,2.24,AU,1704929517
61,bargaal,11.2864,51.0773,296.24,75,26,4.24,SO,1704929517
62,georgetown,5.4112,100.3354,299.11,97,20,1.54,MY,1704929379
63,tazacorte,28.629,-17.9293,294.9,33,0,4.12,ES,1704929518
64,blackmans bay,-43.0167,147.3167,293.44,53,32,1.54,AU,1704929518
65,boguchany,58.3814,97.4531,243.63,99,56,2.24,RU,1704929519
66,hawaiian paradise park,19.5933,-154.9731,300.31,88,100,3.09,US,1704929519
67,pisco,-13.7,-76.2167,297.18,73,0,9.26,PE,1704929519
68,iqaluit,63.7506,-68.5145,243.0,67,20,2.06,CA,1704929520
69,cill airne,52.05,-9.5167,276.67,82,74,1.91,IE,1704929520
70,puerto ayora,-0.7393,-90.3518,299.01,92,40,2.24,EC,1704929520
71,punta arenas,-53.15,-70.9167,285.21,66,75,11.32,CL,1704929521
72,magadan,59.5667,150.8,248.74,92,94,2.76,RU,1704929521
73,oranjemund,-28.55,16.4333,291.0,85,74,3.53,NA,1704929522
74,trumann,35.6737,-90.5073,279.21,63,8,7.08,US,1704929522
75,umba,66.6871,34.3429,263.39,81,48,6.62,RU,1704929523
76,san patricio,28.017,-97.5169,294.56,72,27,5.51,US,1704929523
77,lihue,21.9789,-159.3672,296.89,74,100,3.09,US,1704929524
78,wailua homesteads,22.0669,-159.378,296.55,74,100,3.09,US,1704929525
79,vorgashor,67.5833,63.95,236.54,100,53,2.43,RU,1704929525
80,brisas de zicatela,15.8369,-97.0419,301.44,65,40,5.14,MX,1704929526
81,hotan,37.0997,79.9269,271.84,38,3,1.85,CN,1704929526
82,keflavik,64.0049,-22.5624,280.39,81,100,10.8,IS,1704929526
83,opuwo,-18.0607,13.84,293.2,38,100,2.94,NA,1704929527
84,chakia,26.4167,85.05,282.66,66,0,2.68,IN,1704929528
85,dapa,9.7594,126.0531,300.44,79,92,3.6,PH,1704929528
86,dalbandin,28.8947,64.4101,284.19,23,19,1.49,PK,1704929529
87,al bardiyah,31.7561,25.0865,286.83,64,64,6.1,LY,1704929529
88,federacion,-31.0062,-57.8996,296.25,94,100,2.76,AR,1704929530
89,sinazongwe,-17.2614,27.4618,296.26,91,100,1.64,ZM,1704929530
90,palembang,-2.9167,104.7458,297.2,100,20,2.06,ID,1704929531
91,kuacjok,8.3002,27.9903,298.63,29,59,2.58,SS,1704929531
92,sinop,41.7711,34.8709,272.18,84,93,0.66,TR,1704929533
93,nizhnyaya poyma,56.1622,97.1933,253.35,84,78,5.38,RU,1704929534
94,kingaroy,-26.5333,151.8333,300.51,56,89,4.47,AU,1704929535
95,ambon,-3.6954,128.1814,305.33,100,40,2.06,ID,1704929535
96,necochea,-38.5473,-58.7368,289.84,67,0,5.17,AR,1704929536
97,anadyr,64.75,177.4833,246.48,75,88,10.0,RU,1704929536
98,enewetak,11.3474,162.3373,300.53,83,27,8.72,MH,1704929537
99,susuman,62.7833,148.1667,229.81,100,83,0.45,RU,1704929537
100,badger,64.8,-147.5333,253.1,75,20,5.66,US,1704929538
101,ts'khinvali,42.2276,43.9686,273.78,87,100,2.88,GE,1704929538
102,msanga,-6.05,36.0333,293.03,92,100,1.92,TZ,1704929539
103,westport,41.1415,-73.3579,282.14,57,100,7.15,US,1704929539
104,uturoa,-16.7333,-151.4333,301.17,77,96,6.19,PF,1704929540
105,crane,31.3974,-102.3501,288.51,15,1,6.56,US,1704929541
106,portland,45.5234,-122.6762,281.6,82,100,4.63,US,1704929348
107,san andres,12.5847,-81.7006,302.16,74,20,2.06,CO,1704929542
108,new norfolk,-42.7826,147.0587,294.1,43,61,2.73,AU,1704929543
109,island harbour,50.724,-1.2758,275.46,79,41,2.68,GB,1704929543
110,homer,59.6425,-151.5483,272.08,72,40,5.36,US,1704929466
111,le vauclin,14.5452,-60.8388,299.18,83,40,3.09,MQ,1704929544
112,pokrovsk,48.282,37.1758,269.84,96,100,3.9,UA,1704929545
113,stanley,54.868,-1.6985,278.16,87,75,6.17,GB,1704929546
114,geraldton,-28.7667,114.6,295.38,83,100,7.2,AU,1704929496
115,san julian,21.0167,-102.1667,289.94,31,84,4.8,MX,1704929547
116,tateyama,34.9833,139.8667,279.32,63,100,11.39,JP,1704929547
117,vadso,70.0744,29.7487,267.64,93,100,5.66,NO,1704929548
118,monroeville,40.4212,-79.7881,275.29,78,100,8.23,US,1704929335
119,lompoc,34.6391,-120.4579,289.27,64,20,9.26,US,1704929548
120,yerofey pavlovich,53.9667,121.9667,250.68,98,100,0.4,RU,1704929549
121,zhongshu,24.5167,103.7667,282.88,96,100,1.42,CN,1704929549
122,mount pearl,47.5166,-52.7813,268.19,83,100,7.2,CA,1704929550
123,ta`u,-14.2336,-169.5144,302.07,71,57,3.65,AS,1704929550
124,madimba,-10.4,40.3333,298.89,91,100,4.22,TZ,1704929551
125,vila velha,-20.3297,-40.2925,300.12,83,20,6.69,BR,1704929551
126,aromashevo,56.8602,68.6375,247.15,93,100,6.46,RU,1704929552
127,emerald,-23.5333,148.1667,300.56,70,93,5.29,AU,1704929326
128,thunder bay,48.4001,-89.3168,265.14,79,100,3.09,CA,1704929351
129,hobyo,5.3505,48.5268,298.3,78,24,8.98,SO,1704929553
130,lewistown,40.5992,-77.5714,278.08,90,75,5.14,US,1704929554
131,znamenskoye,57.1281,73.8282,251.93,91,100,6.52,RU,1704929554
132,tolanaro,-25.0319,46.9987,298.19,88,40,9.26,MG,1704929554
133,sao felix do xingu,-6.6447,-51.995,296.89,87,86,1.09,BR,1704929555
134,papatowai,-46.5619,169.4708,293.33,60,99,2.62,NZ,1704929555
135,lerwick,60.1545,-1.1494,279.15,70,100,7.45,GB,1704929556
136,mulki,13.1,74.8,296.75,88,100,2.57,IN,1704929556
137,gdov,58.7406,27.8122,274.38,88,100,6.95,RU,1704929557
138,iskateley,67.6803,53.1512,252.6,95,99,5.81,RU,1704929557
139,kamen'-na-obi,53.7884,81.3423,259.79,85,100,9.37,RU,1704929558
140,trashigang,27.3331,91.5542,282.5,78,48,1.09,BT,1704929558
141,pariaman,-0.619,100.12,298.18,87,87,1.65,ID,1704929558
142,flying fish cove,-10.4217,105.6791,297.97,94,75,1.03,CX,1704929559
143,zuwarah,32.9312,12.082,286.31,35,27,2.98,LY,1704929559
144,dalandzadgad,43.5708,104.425,264.76,75,6,2.31,MN,1704929560
145,zainsk,55.3195,52.0694,252.7,100,81,3.94,RU,1704929560
146,ciudad bolivar,8.1222,-63.5497,301.61,63,100,6.41,VE,1704929561
147,luena,-11.7833,19.9167,292.25,63,98,2.06,AO,1704929561
148,college,64.8569,-147.8028,253.14,74,75,5.66,US,1704929561
149,peace river,56.2501,-117.286,246.32,63,100,4.12,CA,1704929561
150,mili,6.0815,171.735,300.5,74,100,9.97,MH,1704929562
151,lazaro cardenas,17.9583,-102.2,299.73,70,94,3.26,MX,1704929563
152,jamestown,42.097,-79.2353,274.92,88,100,9.83,US,1704929539
153,gomez farias,23.05,-99.15,292.27,54,100,1.72,MX,1704929563
154,junagarh,19.8667,82.9333,292.5,55,36,0.38,IN,1704929564
155,margaret river,-33.95,115.0667,288.08,77,98,4.15,AU,1704929355
156,sake,-1.5736,29.045,291.02,91,100,0.55,CD,1704929565
157,puerto natales,-51.7236,-72.4875,283.01,83,83,3.52,CL,1704929565
158,daru,-9.0763,143.2092,301.94,71,99,2.56,PG,1704929565
159,nar'yan-mar,67.6713,53.087,252.65,95,99,5.81,RU,1704929566
160,ujae,8.9322,165.7642,301.18,74,90,8.06,MH,1704929566
161,bima,-8.4667,118.7167,302.2,80,87,0.71,ID,1704929567
162,ponta delgada,37.7333,-25.6667,288.55,94,75,8.75,PT,1704929567
163,castillos,-34.1667,-53.8333,294.77,96,100,2.36,UY,1704929567
164,kavieng,-2.5744,150.7967,302.4,69,84,0.83,PG,1704929568
165,bandarbeyla,9.4942,50.8122,296.89,72,43,8.46,SO,1704929568
166,kudahuvadhoo,2.6708,72.8944,300.64,82,99,6.59,MV,1704929569
167,auki,-8.7676,160.7034,303.49,66,51,1.24,SB,1704929569
168,cobram,-35.9167,145.65,301.24,46,0,1.78,AU,1704929569
169,zhangye,38.9342,100.4517,271.01,21,0,1.67,CN,1704929570
170,manismata,-2.4667,111.0333,298.42,92,80,1.44,ID,1704929570
171,aykhal,66.0,111.5,237.47,100,66,1.93,RU,1704929570
172,klyuchi,52.2667,79.1667,261.2,79,96,8.47,RU,1704929570
173,kruisfontein,-34.0033,24.7314,291.42,97,88,0.72,ZA,1704929571
174,agadez,19.75,10.25,288.74,12,67,3.59,NE,1704929571
175,brasilia,-15.7797,-47.9297,294.05,94,75,2.06,BR,1704929035
176,gondar,12.6,37.4667,286.04,33,3,1.51,ET,1704929572
177,chernyshevskiy,63.0128,112.4714,238.32,100,100,1.28,RU,1704929572
178,laurel,39.0993,-76.8483,281.46,55,100,9.77,US,1704929400
179,ilhabela,-23.7781,-45.3581,298.92,89,7,2.13,BR,1704929578
180,turbat,26.0023,63.044,289.45,39,1,0.59,PK,1704929578
181,imishli,39.8709,48.06,272.62,92,77,1.35,AZ,1704929579
182,afaahiti,-17.75,-149.2833,302.08,80,99,7.79,PF,1704929579
183,t'ongch'on-up,38.9539,127.8917,272.89,69,19,7.66,KP,1704929580
184,namibe,-15.1961,12.1522,294.34,74,92,3.57,AO,1704929580
185,weno,7.4515,151.8468,302.12,74,100,4.12,FM,1704929580
186,ullal,12.8,74.85,296.68,88,100,2.57,IN,1704929581
187,cabo san lucas,22.8909,-109.9124,294.68,49,75,4.12,MX,1704929373
188,rikaze,29.25,88.8833,269.25,22,0,0.65,CN,1704929581
189,tol'yatti,53.5303,49.3461,245.5,98,44,2.67,RU,1704929582
190,xiva,41.3783,60.3639,271.14,92,100,4.16,UZ,1704929583
191,richards bay,-28.783,32.0377,295.12,96,81,1.3,ZA,1704929583
192,nicoya,10.1483,-85.452,300.03,76,27,1.51,CR,1704929549
193,west kelowna,49.8625,-119.5833,272.9,47,75,2.06,CA,1704929584
194,gagarin,55.5529,34.9954,273.01,98,100,7.61,RU,1704929585
195,maryville,35.7565,-83.9705,277.68,77,75,2.57,US,1704929585
196,caxito,-8.5785,13.6643,296.87,94,76,0.98,AO,1704929586
197,olonkinbyen,70.9221,-8.7187,274.53,90,100,11.79,SJ,1704929586
198,chita,52.0333,113.55,257.09,61,26,4.0,RU,1704929454
199,mejit,10.2753,170.8646,300.1,81,78,9.8,MH,1704929586
200,limulunga,-15.0969,23.1376,292.59,95,100,1.37,ZM,1704929587
201,kivsharivka,49.6213,37.7036,266.3,94,94,3.29,UA,1704929588
202,yuzhno-kurilsk,44.0306,145.8556,266.14,57,69,3.98,RU,1704929588
203,outjo,-20.1167,16.15,292.0,44,100,4.35,NA,1704929589
204,sisimiut,66.9395,-53.6735,263.68,90,100,3.61,GL,1704929589
205,longyearbyen,78.2186,15.6401,261.06,85,100,5.66,SJ,1704929590
206,ulsteinvik,62.3432,5.8487,279.12,91,97,0.45,NO,1704929590
207,nieuw amsterdam,5.8833,-55.0833,300.16,87,75,6.17,SR,1704929591
208,qarazhal,48.0078,70.7903,262.51,95,100,4.22,KZ,1704929591
209,yelizovo,53.1873,158.3805,251.23,71,75,1.0,RU,1704929592
210,andergrove,-21.0833,149.1833,299.62,68,95,6.44,AU,1704929592
211,rafraf,37.1904,10.1837,283.32,65,98,3.59,TN,1704929593
212,hermanus,-34.4187,19.2345,290.48,90,50,3.89,ZA,1704929593
213,trikala,39.5553,21.7675,278.48,76,100,0.04,GR,1704929593
214,saipan,15.1355,145.701,301.54,78,0,4.12,MP,1704929594
215,happy valley-goose bay,53.3168,-60.3315,257.32,66,100,3.09,CA,1704929380
216,indramayu,-6.3264,108.32,299.99,80,100,1.52,ID,1704929595
217,nadym,65.5333,72.5167,254.23,97,100,10.21,RU,1704929595
218,vernon,50.2581,-119.2691,272.49,47,63,2.68,CA,1704929422
219,toliara,-23.35,43.6667,299.02,85,16,1.58,MG,1704929596
220,inirida,3.8653,-67.9239,297.53,89,100,1.1,CO,1704929597
221,mazagao,-0.115,-51.2894,297.17,96,99,1.87,BR,1704929597
222,enoch,37.7733,-113.0244,275.45,48,0,8.23,US,1704929597
223,el granada,37.5027,-122.4694,286.36,89,100,10.29,US,1704929598
224,urengoy,65.9667,78.3667,255.85,86,100,12.35,RU,1704929598
225,touros,-5.1989,-35.4608,300.25,71,2,5.1,BR,1704929599
226,holualoa,19.6228,-155.9522,298.58,81,75,6.17,US,1704929599
227,at taraf,25.3628,49.725,284.45,41,58,3.64,SA,1704929600
228,dryden,49.7833,-92.7503,262.31,92,100,4.12,CA,1704929601
229,tamanrasset,22.785,5.5228,284.1,17,0,1.03,DZ,1704929601
230,tagkawayan sabang,13.9911,122.5289,297.63,84,35,4.96,PH,1704929601
231,kirensk,57.7853,108.1119,245.35,99,92,1.79,RU,1704929602
232,la passe,45.5549,-0.8967,274.28,76,94,3.27,FR,1704929603
233,sinabang,2.4803,96.3801,299.43,81,98,0.23,ID,1704929604
234,saint-pol-sur-ternoise,50.3811,2.3341,269.86,84,41,2.86,FR,1704929604
235,gaoyou,32.7858,119.4278,275.39,72,53,3.43,CN,1704929605
236,kaiapoi,-43.3783,172.6401,304.57,25,1,7.72,NZ,1704929605
237,selfoss,63.9331,-20.9971,280.29,78,100,7.75,IS,1704929606
238,jayapura,-2.5333,140.7,301.81,84,99,1.03,ID,1704929606
239,hithadhoo,-0.6,73.0833,301.14,76,99,1.28,MV,1704929607
240,aur,8.1499,171.1687,301.07,71,100,8.9,MH,1704929607
241,turkestan,43.3333,68.25,271.4,96,100,2.12,KZ,1704929607
242,kasongo-lunda,-6.4667,16.8167,295.05,97,100,1.16,CD,1704929608
243,hadibu,12.65,54.0333,296.57,81,75,6.0,YE,1704929608
244,hasaki,35.7333,140.8333,277.37,57,99,11.49,JP,1704929609
245,ravenna,44.4167,11.9833,277.31,78,100,3.0,IT,1704929609
246,nadi,-17.8,177.4167,304.15,66,75,3.6,FJ,1704929610
247,pingliang,35.5392,106.6861,273.68,43,0,2.64,CN,1704929610
248,praia da vitoria,38.7333,-27.0667,288.57,100,75,13.08,PT,1704929611
249,lewin brzeski,50.7487,17.6169,265.71,81,3,2.1,PL,1704929615
250,utrik,11.2278,169.8474,300.14,81,82,9.1,MH,1704929616
251,kingston,17.997,-76.7936,300.68,78,20,10.29,JM,1704929558
252,alofi,-19.0595,-169.9187,302.09,79,75,4.12,NU,1704929617
253,broome,42.2506,-75.833,276.36,78,100,8.23,US,1704929617
254,nemuro,43.3236,145.575,266.62,59,24,4.57,JP,1704929618
255,petropavlovsk-kamchatsky,53.0452,158.6483,250.48,71,75,1.0,RU,1704929618
256,bamboo flat,11.7,92.7167,295.2,94,18,1.03,IN,1704929619
257,pando,-34.7167,-55.95,297.2,83,75,5.14,UY,1704929619
258,alamosa,37.4695,-105.87,271.14,43,0,3.6,US,1704929619
259,golyshmanovo,56.3979,68.3728,246.72,94,100,6.56,RU,1704929620
260,pyinmana,19.7333,96.2167,287.81,66,94,1.04,MM,1704929620
261,ottawa,45.4112,-75.6981,275.06,85,100,6.69,CA,1704929621
262,springs,-26.25,28.4,290.61,95,92,1.48,ZA,1704929621
263,port lincoln,-34.7333,135.8667,293.56,67,1,5.69,AU,1704929621
264,posse,-14.0931,-46.3694,294.09,91,99,0.32,BR,1704929439
265,ribeira brava,32.65,-17.0667,293.15,82,92,6.89,PT,1704929622
266,jinka,5.65,36.65,292.54,54,24,0.74,ET,1704929622
267,hamilton,39.1834,-84.5333,274.69,86,100,4.12,US,1704929078
268,tofol,5.3248,163.0078,302.03,74,75,4.63,FM,1704929623
269,oakdale,44.963,-92.9649,269.97,89,100,2.06,US,1704929456
270,porto barra do ivinheima,-22.9667,-53.6667,300.41,63,74,2.63,BR,1704929624
271,galliano,29.4422,-90.2992,286.15,71,21,2.69,US,1704929550
272,nabire,-3.3667,135.4833,298.39,91,100,0.83,ID,1704929624
273,arkalyk,50.2486,66.9114,252.91,97,100,7.48,KZ,1704929625
274,uwajima,33.2238,132.56,280.34,68,3,4.71,JP,1704929625
275,cockburn town,21.4612,-71.1419,298.94,87,100,6.87,TC,1704929376
276,maymana,35.9214,64.7836,282.72,30,74,1.4,AF,1704929626
277,ad dilam,23.9915,47.1627,287.38,25,52,4.91,SA,1704929626
278,cavelossim,15.1726,73.9419,299.14,58,53,3.07,IN,1704929627
279,gadzhiyevo,69.2551,33.3362,268.3,61,100,11.69,RU,1704929627
280,natal,-5.795,-35.2094,301.51,74,75,4.12,BR,1704929448
281,cidreira,-30.1811,-50.2056,296.8,93,100,1.91,BR,1704929627
282,sebezh,56.2955,28.4654,273.76,93,100,6.4,RU,1704929628
283,port alfred,-33.5906,26.891,293.81,97,91,2.38,ZA,1704929628
284,mecca,21.4267,39.8261,296.41,75,12,2.1,SA,1704929576
285,dampit,-8.2116,112.7493,297.4,92,100,0.56,ID,1704929629
286,miranda,3.2499,-76.2281,300.22,92,83,2.51,CO,1704929629
287,st. john's,47.5649,-52.7093,268.59,82,100,7.2,CA,1704929402
288,canutama,-6.5339,-64.3831,296.79,99,89,0.6,BR,1704929630
289,poniatowa,51.1798,22.1309,267.44,69,12,4.06,PL,1704929630
290,wynyard,-41.0,145.7167,294.32,50,7,2.43,AU,1704929631
291,kenai,60.5544,-151.2583,263.79,99,0,3.6,US,1704929631
292,perelyub,51.8667,50.3667,247.49,100,38,1.81,RU,1704929631
293,port mathurin,-19.6833,63.4167,301.03,76,11,4.11,MU,1704929632
294,port augusta,-32.5,137.7667,303.09,26,3,3.9,AU,1704929632
295,tremembe,-22.9583,-45.5494,295.35,100,75,3.09,BR,1704929632
296,el hajeb,33.6879,-5.371,278.21,88,6,0.33,MA,1704929633
297,san clemente del tuyu,-36.3569,-56.7235,292.52,81,0,4.56,AR,1704929633
298,lambari,-21.9756,-45.3503,292.7,96,37,0.35,BR,1704929633
299,burang,30.25,81.1667,264.73,21,0,1.97,CN,1704929634
300,coronel suarez,-37.4547,-61.9334,293.31,52,7,7.62,AR,1704929634
301,kourou,5.1552,-52.6478,301.18,89,100,4.39,GF,1704929634
302,mumford,5.2618,-0.759,300.63,83,5,4.01,GH,1704929635
303,saint-pierre,-21.3393,55.4781,297.97,78,0,7.72,RE,1704929635
304,barcelos,41.5388,-8.6151,283.1,95,52,2.01,PT,1704929636
305,sitka,57.0531,-135.33,274.09,34,75,2.06,US,1704929636
306,narayanganj,23.6233,90.5011,288.16,52,2,1.07,BD,1704929636
307,antofagasta,-23.65,-70.4,293.75,79,38,2.3,CL,1704929540
308,kununurra,-15.7667,128.7333,299.14,89,100,3.09,AU,1704929519
309,bengkulu,-3.8004,102.2655,297.37,85,98,1.92,ID,1704929637
310,inari,68.906,27.0288,263.26,93,57,2.89,FI,1704929637
311,north bend,43.4065,-124.2243,278.1,87,100,0.0,US,1704929500
312,lumding railway colony,25.749,93.17,284.08,91,0,0.67,IN,1704929638
313,nenagh,52.8619,-8.1967,275.89,91,100,2.71,IE,1704929638
314,mwatate,-3.5029,38.3795,293.36,88,98,1.73,KE,1704929639
315,naze,28.3667,129.4833,284.66,51,82,8.57,JP,1704929639
316,mosjoen,65.836,13.1908,275.44,80,100,2.57,NO,1704929639
317,regina,50.4501,-104.6178,253.21,73,75,10.29,CA,1704929473
318,berdigestyakh,62.0989,126.6992,234.82,99,98,1.24,RU,1704929640
319,dunedin,-45.8742,170.5036,299.3,41,66,2.63,NZ,1704929547
320,tual,-5.6667,132.75,302.26,75,100,5.56,ID,1704929641
321,tynda,55.1667,124.7167,238.6,99,99,0.33,RU,1704929641
322,siwa oasis,29.2041,25.5195,284.9,68,59,2.57,EG,1704929641
323,selkirk,50.1436,-96.8845,267.23,95,100,4.88,CA,1704929642
324,port hedland,-20.3167,118.5667,303.18,79,40,3.6,AU,1704929501
325,la paz,-16.5,-68.15,288.14,35,75,8.23,BO,1704929364
326,holly springs,35.6513,-78.8336,281.22,68,60,0.45,US,1704929459
327,chui,-33.6971,-53.4616,295.32,96,100,2.77,UY,1704929643
328,imeko,7.45,2.85,299.14,79,5,1.75,NG,1704929644
329,codrington,-38.2667,141.9667,292.87,67,68,3.15,AU,1704929644
330,noshiro,40.2039,140.0242,266.61,69,25,2.53,JP,1704929645
331,al harithah,30.7186,47.7208,288.96,81,0,5.7,IQ,1704929646
332,as sulayyil,20.4607,45.5779,284.29,28,24,2.61,SA,1704929646
333,alupka,44.4167,34.05,275.79,69,4,1.21,UA,1704929646
334,grantsville,40.5999,-112.4644,273.71,96,100,6.17,US,1704929647
335,jabor,5.921,169.6434,300.65,77,100,10.45,MH,1704929647
336,kone,-21.0595,164.8658,304.28,46,93,1.92,NC,1704929648
337,flin flon,54.7682,-101.865,248.06,77,75,3.09,CA,1704929648
338,ciutadella,40.0011,3.8414,283.6,84,100,4.42,ES,1704929649
339,cromer,52.9312,1.2989,277.08,69,4,6.3,GB,1704929649
340,thurso,58.5927,-3.5259,278.29,76,100,2.93,GB,1704929655
341,jutai,-5.1833,-68.9,295.52,99,94,1.72,BR,1704929656
342,ebon,4.582,168.6964,301.34,81,100,9.56,MH,1704929657
343,yaren,-0.5472,166.916,302.18,76,69,4.11,NR,1704929657
344,bikenibeu village,1.3673,173.1241,303.13,79,40,4.63,KI,1704929658
345,dudinka,69.4058,86.1778,242.97,96,68,4.02,RU,1704929658
346,say,13.1007,2.3689,298.46,12,73,4.12,NE,1704929659
347,luderitz,-26.6481,15.1594,289.66,89,19,6.36,NA,1704929659
348,puerto eldorado,-26.4084,-54.6946,300.99,68,99,1.63,AR,1704929660
349,sumenep,-7.0167,113.8667,300.65,81,93,1.99,ID,1704929665
350,tadine,-21.55,167.8833,301.32,70,81,3.47,NC,1704929666
351,vanimo,-2.6741,141.3028,301.35,79,100,0.91,PG,1704929666
352,greeneville,36.1632,-82.831,275.09,83,0,0.89,US,1704929666
353,manta,-0.95,-80.7333,301.03,78,40,5.81,EC,1704929667
354,concordia,-31.393,-58.0209,296.36,91,100,1.87,AR,1704929406
355,central point,42.376,-122.9164,275.87,93,100,2.06,US,1704929619
356,pandan,14.0453,124.1694,298.76,86,75,8.33,PH,1704929669
357,west bay,19.3667,-81.4167,300.19,82,75,3.09,KY,1704929670
358,olyokminsk,60.3736,120.4264,248.66,97,99,1.06,RU,1704929670
359,smirnykh,49.75,142.8333,250.75,76,5,0.54,RU,1704929671
360,beyneu,45.3167,55.2,269.6,92,100,8.42,KZ,1704929671
361,san antonio de pale,-1.4014,5.6325,300.04,77,91,4.17,GQ,1704929672
362,udangudi,8.4333,78.0167,297.1,87,100,6.16,IN,1704929672
363,arraial do cabo,-22.9661,-42.0278,300.07,78,20,5.14,BR,1704929673
364,biltine,14.5333,20.9167,295.1,22,0,5.63,TD,1704929673
365,eyl,7.9803,49.8164,296.18,72,17,9.0,SO,1704929673
366,trincomalee,8.5711,81.2335,300.09,79,100,7.42,LK,1704929675
367,pamandzi,-12.7967,45.2794,300.03,83,0,4.63,YT,1704929675
368,essaouira,31.5125,-9.77,286.87,82,0,1.03,MA,1704929676
369,alaghsas,17.0187,8.0168,291.4,13,9,4.64,NE,1704929677
370,punta cardon,11.6581,-70.215,299.62,82,6,13.58,VE,1704929677
371,mata-utu,-13.2816,-176.1745,302.36,74,97,4.08,WF,1704929678
372,bollnas,61.3482,16.3946,277.54,82,99,6.08,SE,1704929678
373,mopti,14.6667,-4.0,300.19,12,96,4.25,ML,1704929679
374,deschutes river woods,43.9915,-121.3584,273.72,71,97,1.34,US,1704929679
375,colonia,50.9333,6.95,270.85,74,0,3.09,DE,1704929679
376,pacific grove,36.6177,-121.9166,285.18,88,100,5.14,US,1704929680
377,nova sintra,14.8667,-24.7167,294.33,65,0,3.52,CV,1704929680
378,mahavelona,-17.6848,49.5087,298.14,89,84,2.82,MG,1704929680
379,campoverde,-8.4753,-74.8058,303.98,61,98,1.46,PE,1704929681
380,la cruz,23.9167,-106.9,292.63,69,100,2.15,MX,1704929681
381,camocim,-2.9022,-40.8411,300.55,79,9,5.95,BR,1704929681
382,nogliki,51.8333,143.1667,245.01,98,31,1.79,RU,1704929682
383,luanda,-8.8368,13.2343,300.15,82,20,2.06,AO,1704929590
384,mccook,40.2019,-100.6257,279.18,49,0,4.63,US,1704929605
385,macas,-2.3167,-78.1167,299.01,69,75,1.03,EC,1704929674
386,laguna,38.421,-121.4238,287.14,86,100,10.29,US,1704929677
387,alta,69.9689,23.2717,268.74,81,100,3.6,NO,1704929683
388,matai,-8.3,31.5167,288.27,99,100,1.05,TZ,1704929683
389,acajutla,13.5928,-89.8275,299.76,75,6,3.18,SV,1704929683
390,albert,50.0009,2.651,269.44,82,100,4.63,FR,1704929684
391,freshwater,50.692,-1.5079,275.58,76,48,6.41,GB,1704929684
392,howard springs,-12.497,131.047,299.25,99,100,2.2,AU,1704929684
393,ilek,51.5271,53.3831,242.5,100,43,1.41,RU,1704929685
394,kem',64.9555,34.5793,263.17,80,83,8.69,RU,1704929685
395,dhuusamarreeb,5.535,46.3861,294.69,76,3,6.35,SO,1704929686
396,aberdeen,57.1437,-2.0981,277.42,100,100,3.09,GB,1704929663
397,den burg,53.0542,4.7972,270.13,80,0,5.14,NL,1704929686
398,igarka,67.4667,86.5833,249.94,88,100,5.48,RU,1704929687
399,byron bay,-28.65,153.6167,298.54,85,31,4.93,AU,1704929687
400,birao,10.2849,22.7882,293.7,24,0,1.91,CF,1704929682
401,ingeniero jacobacci,-41.3427,-69.5448,295.38,14,1,5.27,AR,1704929688
402,haiku-pauwela,20.9219,-156.3051,299.96,63,40,9.26,US,1704929688
403,hooper,41.1638,-112.1224,272.53,83,100,10.8,US,1704929688
404,petauke,-14.2426,31.3253,292.16,96,99,1.7,ZM,1704929688
405,inarajan village,13.2736,144.7484,301.92,83,31,3.74,GU,1704929689
406,kerouane,9.2667,-9.0167,298.1,27,22,1.55,GN,1704929689
407,grootfontein,-19.5667,18.1167,294.12,74,100,0.11,NA,1704929689
408,raja,8.4596,25.678,296.05,29,67,2.1,SS,1704929690
409,narrabri,-30.3167,149.7833,303.44,67,100,0.45,AU,1704929690
410,kayangel,8.0823,134.7173,301.98,72,59,5.72,PW,1704929690
411,fort-shevchenko,44.5086,50.263,272.37,76,100,12.13,KZ,1704929691
412,enid,36.3956,-97.8784,283.97,38,0,4.12,US,1704929691
413,bonthe,7.5264,-12.505,299.28,86,17,2.93,SL,1704929691
414,taco pozo,-25.6167,-63.2833,304.11,59,46,7.02,AR,1704929692
415,rongelap,11.1635,166.8941,300.26,78,57,8.85,MH,1704929692
416,rabaul,-4.1967,152.1721,301.94,72,98,2.0,PG,1704929692
417,nuuk,64.1835,-51.7216,268.49,93,100,6.17,GL,1704929693
418,waliso,8.5333,37.9833,288.12,61,40,1.86,ET,1704929693
419,baker city,44.7749,-117.8344,273.99,67,100,0.0,US,1704929537
420,beccles,52.4535,1.564,276.97,84,0,4.33,GB,1704929694
421,karatau,43.1667,70.4667,274.54,88,100,1.43,KZ,1704929694
422,quepos,9.4236,-84.1652,299.93,81,15,0.38,CR,1704929511
423,tsetserleg,47.475,101.4542,258.45,80,3,2.78,MN,1704929695
424,ocean shores,46.9737,-124.1563,281.46,81,40,2.68,US,1704929631
425,greenville,35.6127,-77.3663,281.24,67,0,2.06,US,1704929403
426,mount gambier,-37.8333,140.7667,294.17,55,26,2.76,AU,1704929696
427,kharhial,20.2833,82.7667,292.87,53,28,0.67,IN,1704929697
428,udachny,66.4167,112.4,237.84,73,57,1.74,RU,1704929698
429,soissons,49.3333,3.3333,271.71,74,44,2.97,FR,1704929699
430,konarka,19.9,86.1167,293.37,70,87,1.57,IN,1704929699
431,ancud,-41.8697,-73.8203,287.52,74,2,1.39,CL,1704929537
432,kogalym,62.2654,74.4791,258.21,97,100,0.88,RU,1704929699
433,kabalo,-6.05,26.9167,293.29,96,100,1.02,CD,1704929700
434,ola,59.5833,151.2833,248.22,90,93,3.01,RU,1704929700
435,sawakin,19.1059,37.3321,298.59,76,1,1.05,SD,1704929706
436,vilyuchinsk,52.9306,158.4028,251.3,70,100,2.82,RU,1704929706
437,chissamba,-12.1667,17.3333,291.2,94,100,1.49,AO,1704929707
438,dwarka,22.2394,68.9678,292.98,47,0,6.08,IN,1704929707
439,qamdo,31.1667,97.2333,263.62,30,0,1.72,CN,1704929707
440,nishinoomote,30.7333,131.0,283.46,76,20,5.66,JP,1704929708
441,satana,20.5833,74.2,293.15,73,25,0.24,IN,1704929708
442,carnarvon,-24.8667,113.6333,297.72,72,0,8.71,AU,1704929709
443,baise city,23.8997,106.6133,291.12,99,100,0.84,CN,1704929709
444,morant bay,17.8815,-76.4093,300.94,88,68,5.36,JM,1704929710
445,kimovsk,53.9716,38.5319,262.34,94,100,8.23,RU,1704929710
446,saudarkrokur,65.7461,-19.6394,275.57,78,5,6.58,IS,1704929711
447,borkum,53.5809,6.6915,269.23,81,11,3.36,DE,1704929711
448,formosa do rio preto,-11.0483,-45.1931,299.62,59,92,0.55,BR,1704929712
449,urangan,-25.3,152.9,301.04,84,84,4.47,AU,1704929712
450,ionia,42.9873,-85.0711,274.26,95,100,2.06,US,1704929713
451,farrukhnagar,17.0778,78.2011,291.99,69,28,2.33,IN,1704929713
452,tazovsky,67.4667,78.7,251.64,94,100,9.57,RU,1704929714
453,huron,41.1501,-82.5499,274.27,82,100,6.77,US,1704929714
454,semnan,35.5729,53.3971,279.36,33,20,1.21,IR,1704929715
455,sipalay,9.75,122.5,300.35,77,56,2.53,PH,1704929715
456,novoishimskiy,53.1981,66.7694,244.54,95,31,3.97,KZ,1704929716
457,nagqu,31.5,92.0,257.54,37,21,1.34,CN,1704929716
458,douglas,41.3,-96.167,271.64,89,100,3.09,US,1704929461
459,omu-aran,8.1333,5.1,297.39,15,1,0.6,NG,1704929717
460,port blair,11.6667,92.75,295.17,94,20,1.03,IN,1704929718
461,seosan,36.7817,126.4522,274.35,70,27,1.61,KR,1704929718
462,sao gabriel da cachoeira,-0.1303,-67.0892,297.09,97,89,1.31,BR,1704929719
463,howrah,22.5892,88.3103,289.15,88,6,2.57,IN,1704929719
464,labytnangi,66.6572,66.4183,250.74,86,91,5.31,RU,1704929719
465,belmonte,-15.8631,-38.8828,298.1,83,96,2.73,BR,1704929720
466,caracal,44.1167,24.35,267.12,86,82,2.02,RO,1704929720
467,kavaratti,10.5669,72.642,301.36,70,78,3.06,IN,1704929721
468,alakurtti,66.9672,30.3491,263.35,80,43,5.38,RU,1704929722
469,floriano,-6.7669,-43.0225,302.4,57,81,1.42,BR,1704929722
470,tariba,7.8188,-72.2243,297.46,71,51,0.2,VE,1704929723
471,myitkyina,25.3833,97.4,283.06,73,0,1.05,MM,1704929723
472,argo,37.6333,22.7333,280.25,81,65,1.61,GR,1704929724
473,pauini,-7.7136,-66.9764,296.82,97,74,1.22,BR,1704929725
474,dzhetygara,52.1908,61.2006,243.46,91,62,3.57,KZ,1704929725
475,xuddur,4.1213,43.8894,294.09,70,30,6.66,SO,1704929726
476,cooma,-36.2333,149.1333,295.84,64,21,2.53,AU,1704929726
477,korla,41.7597,86.1469,267.8,68,62,0.75,CN,1704929727
478,cabezon de la sal,43.3089,-4.2302,279.65,91,100,0.76,ES,1704929727
479,mont-laurier,46.5501,-75.4993,273.94,97,100,5.1,CA,1704929562
480,muroto-misakicho,33.2833,134.15,282.66,55,99,4.09,JP,1704929728
481,waddan,29.1614,16.139,283.14,47,86,2.6,LY,1704929729
482,chilliwack,49.1747,-121.9443,278.15,82,98,3.6,CA,1704929729
483,sunchales,-30.944,-61.5615,293.38,96,100,2.76,AR,1704929730
484,villa gesell,-37.2639,-56.973,290.75,65,0,5.46,AR,1704929730
485,datong,40.0936,113.2914,261.95,90,6,1.22,CN,1704929731
486,chatillon-sur-seine,47.8585,4.5738,271.96,81,99,2.58,FR,1704929732
487,baloda,22.15,82.4833,289.77,67,32,3.46,IN,1704929732
488,nacala,-14.5428,40.6728,299.21,87,90,2.44,MZ,1704929733
489,matoury,4.8483,-52.3317,301.13,78,75,5.14,GF,1704929733
490,kalamata,37.0389,22.1142,281.54,71,87,1.54,GR,1704929734
491,krasnozerskoye,53.9828,79.2374,258.08,85,100,9.72,RU,1704929735
492,kaa-khem,51.6833,94.7333,253.38,90,98,1.91,RU,1704929735
493,greymouth,-42.4667,171.2,293.45,68,10,3.44,NZ,1704929736
494,miri,4.4148,114.0089,299.23,94,20,1.54,MY,1704929736
495,hami,42.8,93.45,267.95,63,43,0.43,CN,1704929737
496,pangody,65.85,74.4859,254.83,93,100,11.58,RU,1704929737
497,pokrovka,42.3414,78.0056,272.62,53,73,5.01,KG,1704929738
498,mandla,22.6,80.3833,288.78,75,0,1.16,IN,1704929738
499,faya-largeau,17.9257,19.1043,291.99,16,0,10.15,TD,1704929739
500,kharp,66.8014,65.8081,249.93,87,82,3.22,RU,1704929739
501,shevchenkove,49.6959,37.1735,268.48,97,94,3.47,UA,1704929740
502,grand falls-windsor,48.9332,-55.6649,265.1,73,85,2.68,CA,1704929740
503,pendencias,-5.26,-36.7222,300.55,67,29,6.1,BR,1704929741
504,merizo village,13.2658,144.6691,301.69,83,31,3.55,GU,1704929741
505,egilsstadir,65.2653,-14.3948,270.1,86,0,2.06,IS,1704929741
506,goshogawara,40.8044,140.4414,272.0,78,52,1.87,JP,1704929742
507,fale old settlement,-9.3852,-171.2468,302.49,69,92,4.16,TK,1704929742
508,linares,-35.85,-71.6,295.82,25,0,3.52,CL,1704929742
509,tchintabaraden,15.8969,5.7985,292.84,14,36,4.73,NE,1704929743
510,lensk,60.7253,114.9278,248.47,94,57,3.31,RU,1704929743
511,tamandare,-8.7597,-35.1047,299.07,83,14,3.71,BR,1704929744
512,sabinas,27.85,-101.1167,290.81,20,66,3.14,MX,1704929559
513,hengshui,37.7322,115.7011,271.6,80,0,1.89,CN,1704929744
514,severo-yeniseyskiy,60.3725,93.0408,250.69,79,78,5.36,RU,1704929745
515,garissa,-0.4536,39.6401,299.98,57,95,4.01,KE,1704929745
516,saldanha,-33.0117,17.9442,289.18,91,0,6.13,ZA,1704929746
517,hammerfest,70.6634,23.6821,268.4,80,75,5.14,NO,1704929746
518,fort st. john,56.2499,-120.8529,245.09,63,75,7.2,CA,1704929673
519,chibougamau,49.9168,-74.3659,265.94,93,100,2.06,CA,1704929747
520,taro,-8.3862,115.28,298.15,84,97,0.92,ID,1704929747
521,sal rei,16.1833,-22.9167,295.98,64,0,4.51,CV,1704929747
522,chernyshevsk,52.5243,117.0174,242.74,100,86,0.94,RU,1704929748
523,ghadamis,30.1337,9.5007,285.94,20,100,4.09,LY,1704929748
524,puerto baquerizo moreno,-0.9,-89.6,298.08,82,76,4.25,EC,1704929748
525,prince rupert,54.3161,-130.3201,273.98,59,0,9.26,CA,1704929749
526,vilyuysk,63.7553,121.6247,234.26,97,97,3.13,RU,1704929749
527,smithers,54.7804,-127.1743,263.33,92,100,3.09,CA,1704929749
528,yilan,24.757,121.753,288.72,73,47,1.48,TW,1704929750
529,atkarsk,51.8718,45.0078,247.64,100,43,2.09,RU,1704929750
530,atafu village,-8.5421,-172.5159,302.04,74,11,3.93,TK,1704929750
531,verdal,63.7933,11.4817,278.17,97,100,5.02,NO,1704929751
532,elverum,60.8819,11.5623,263.88,93,100,1.79,NO,1704929751
533,plettenberg bay,-34.0527,23.3716,292.12,95,98,2.81,ZA,1704929751
534,dubrajpur,23.8,87.3833,289.05,80,1,2.28,IN,1704929752
535,trondheim,63.4305,10.3951,280.2,95,100,1.34,NO,1704929752
536,loreto,22.2667,-101.9667,289.71,19,100,7.49,MX,1704929532
537,arapgir,39.0412,38.4952,276.21,99,100,1.29,TR,1704929753
538,airway heights,47.6446,-117.5933,273.59,78,100,3.09,US,1704929753
539,san rafael,-34.6177,-68.3301,294.66,53,68,7.23,AR,1704929489
540,chonchi,-42.6128,-73.8092,290.71,72,10,2.83,CL,1704929754
541,san benito,36.6166,-121.0844,279.22,81,86,2.75,US,1704929755
542,gobabis,-22.45,18.9667,296.38,54,100,2.74,NA,1704929755
543,darhan,49.4867,105.9228,248.98,99,88,2.52,MN,1704929756
544,sosnovo-ozerskoye,52.5249,111.5418,245.14,98,22,2.89,RU,1704929756
545,liwale,-9.7667,37.9333,295.16,99,100,1.56,TZ,1704929756
546,collie,-33.3667,116.15,293.84,59,70,3.38,AU,1704929756
547,corinto,37.9407,22.9573,280.31,73,41,1.95,GR,1704929757
548,manicore,-5.8092,-61.3003,296.04,99,100,1.4,BR,1704929757
549,vilhena,-12.7406,-60.1458,296.27,94,75,3.09,BR,1704929757
550,suicheng,33.8963,117.9331,273.68,72,0,3.49,CN,1704929758
551,changzhou,31.7833,119.9667,275.89,71,83,2.45,CN,1704929758
552,san luis de la loma,17.2706,-100.8939,299.55,75,98,2.52,MX,1704929758
553,acapulco de juarez,16.8634,-99.8901,302.05,70,75,2.06,MX,1704929585
554,nantucket,41.2835,-70.0995,281.23,66,0,10.8,US,1704929759
555,filadelfia,39.9523,-75.1638,281.87,55,75,9.26,US,1704929490
556,valparaiso,-33.0393,-71.6273,297.28,53,0,5.66,CL,1704929684
557,port saint john's,-31.6229,29.5448,294.44,88,96,1.55,ZA,1704929760
558,caleta de carquin,-11.0925,-77.6267,296.5,81,40,4.45,PE,1704929761
559,santarem,-2.4431,-54.7083,300.22,78,0,1.03,BR,1704929761
560,paredon,16.0333,-93.8667,298.67,68,100,1.36,MX,1704929762
561,aquidauana,-20.4711,-55.7872,304.48,51,73,3.11,BR,1704929767
562,amungan,15.3652,119.9582,299.32,74,56,1.1,PH,1704929768
563,mont-dore,-22.2833,166.5833,306.14,96,87,0.67,NC,1704929768
564,ulladulla,-35.35,150.4667,294.57,93,96,4.37,AU,1704929769
565,salalah,17.0151,54.0924,297.2,31,0,3.09,OM,1704929769
566,polillo,14.7122,121.9392,298.73,78,71,7.77,PH,1704929770
567,fada,9.5667,8.3,292.12,10,1,2.66,NG,1704929770
568,bogale,16.2833,95.4,292.02,64,58,2.64,MM,1704929771
569,tejen,37.3834,60.5054,280.24,66,100,4.08,TM,1704929771
570,xilin hot,43.9667,116.0333,254.87,96,11,1.85,CN,1704929772
571,hyesan,41.4017,128.1778,259.31,84,29,0.39,KP,1704929772
572,notodden,59.5594,9.2585,275.37,87,100,1.45,NO,1704929772
573,zapolyarnyy,69.4154,30.8136,266.75,73,100,9.94,RU,1704929598
574,alto barinas,8.5931,-70.2261,302.31,48,59,2.18,VE,1704929774
575,dombarovskiy,50.7587,59.5386,250.93,93,100,4.47,RU,1704929775
576,de haan,51.272,3.0429,269.81,70,0,3.09,BE,1704929775
577,christchurch,-43.5333,172.6333,304.49,21,1,7.72,NZ,1704929678
578,micheweni,-4.9667,39.8333,300.61,78,99,6.03,TZ,1704929776
579,turpan,42.9333,89.1667,269.51,66,60,0.5,CN,1704929776
580,buchanan,5.8808,-10.0467,299.7,82,92,2.65,LR,1704929777
581,ak-dovurak,51.1833,90.6,252.1,94,77,1.34,RU,1704929777
582,punta del este,-34.9667,-54.95,297.21,91,75,4.12,UY,1704929778
583,saint-francois,46.4154,3.9054,273.84,94,100,1.54,FR,1704929778
584,amursk,50.2261,136.8994,242.03,98,96,2.16,RU,1704929779
585,rostovka,55.3842,71.8891,249.73,90,100,8.08,RU,1704929780
586,conduaga,8.862,117.4893,300.62,79,79,3.91,PH,1704929780
587,caconda,-13.7333,15.0667,289.27,96,99,3.46,AO,1704929543
588,olinda,-8.0089,-34.8553,302.0,74,75,3.09,BR,1704929781
589,menaka,15.9182,2.4022,296.83,13,66,4.57,ML,1704929782
590,santana,-0.0583,-51.1817,297.55,94,100,2.46,BR,1704929624
591,belyy yar,53.6039,91.3903,258.09,78,0,2.0,RU,1704929783
592,rampur,28.8167,79.0333,281.11,41,0,3.3,IN,1704929396
